company,name,address,lat,lng,postal_code,locality,adm4,adm1,country
codere,1 DE COPAS,"CENTRO COMERCIAL PARQUE CEUTA, 2, Ceuta",35.8938017,-5.329241199999999,51001,Ceuta,Ceuta,Ceuta,Spain
codere,100 TAPAS,"RIANXO, 5, Coruña",43.3528404,-8.4011579,15009,A Coruña,A Coruña,Galicia,Spain
codere,2515,"VILLA DE NEGREIRA, 51, A Coruña",43.3636431,-8.421814099999999,15010,A Coruña,A Coruña,Galicia,Spain
codere,3 TS,"BLAS DE OTERO, 56, Bilbao",43.2696981,-2.952402,48014,Bilbao,Bilbao,Basque Country,Spain
codere,4 ESTACIONES,"PLACITUELA DEL CUARTEL, 2, Navas del Rey",40.3849428,-4.25119,28695,Navas del Rey,Navas del Rey,Community of Madrid,Spain
codere,40 Y TANTOS,"PASEO DO BALNEARIO, 2, Arteixo",43.3040075,-8.507205899999999,15142,Arteixo,Arteixo,Galicia,Spain
codere,44 Y PICO,"NAVARRERIA, 43, Estella-Lizarra",42.6721757,-2.0296894,31200,Estella,Estella-Lizarra,Navarre,Spain
codere,6 Grados,"Monasterio Caaveiro, 6, A Coruña",43.3619126,-8.425416600000002,15010,A Coruña,A Coruña,Galicia,Spain
codere,67,"Calle CONCEPCION ARENAL, 67, Narón",43.4942798,-8.202297300000001,15570,Narón,Narón,Galicia,Spain
codere,AYALA COMERCIAL,"DE LA INSTITUCION LIBRE DE ENSEÑANZA, 1, Madrid",40.4348289,-3.6967725,28010,Madrid,Madrid,Community of Madrid,Spain
codere,BINGO APHISA,"Calle MANUEL AZAÑA, 18, Alcalá de Henares",40.4878554,-3.3603563,28805,Alcala de Henares,Alcalá de Henares,Community of Madrid,Spain
codere,BINGO CHAL CHAL,"JOSE MARIA LACARRA DE MIGUEL, 6, Zaragoza",41.6462635,-0.8833082,50008,Zaragoza,Zaragoza,Aragon,Spain
codere,BINGO IMPERIAL,"ESPAÑA, 28, Linea De La Concepcion",36.1609112,-5.3515824,11300,La Línea de la Concepción,La Línea de la Concepción,Andalusia,Spain
codere,BINGO LA JONQUERA,"P.I. MAS Morato, Avinguda de Galícia, 2, La Jonquera",42.3976665,2.8826584,17700,,La Jonquera,Catalonia,Spain
codere,BINGO LOS ROSALES,"Plaza de los Geranios, 1, Línea De La Concepcion",36.1609112,-5.3515824,11300,La Línea de la Concepción,La Línea de la Concepción,Andalusia,Spain
codere,BINGO SAN BLAS,"Calle POBLADURA DEL VALLE, 15, Madrid",40.427477,-3.6173082,28037,Madrid,Madrid,Community of Madrid,Spain
codere,Bingo Gran Sur Leganes,"Rey Juan Carlos I, 86-88 - Leganés, Leganes",40.3357501,-3.742622,28916,Leganés,Leganés,Community of Madrid,Spain
codere,Bingo P Sala Bingo Oporto,"OPORTO, 4, Madrid",40.3853893,-3.7186466,28019,Madrid,Madrid,Community of Madrid,Spain
codere,Bingo Ronda,"OUTEIRO, 253, A Coruña",43.3613384,-8.4219062,15010,A Coruña,A Coruña,Galicia,Spain
codere,C4sino Centro,"Julio Saez De La Hoya, 4",42.3479351,-3.6903649,09080,Burgos,Burgos,Castile and León,Spain
codere,CASINO ADMIRAL SAN ROQUE,Carretera Nacional 340 (km 124 cr Cadiz Malaga),36.2300153,-5.358679899999999,11360,,San Roque,Andalusia,Spain
codere,CASINO ADMIRAL SEVILLA,"ARBOLEDA, 0, Tomares",37.3715792,-6.0368667,41940,Tomares,Tomares,Andalusia,Spain
codere,CASINO LA ESTACION,"ESTACION, S/N, Torrejon De Ardoz",40.454943,-3.4803772,28850,Torrejón de Ardoz,Torrejón de Ardoz,Community of Madrid,Spain
codere,CASINO PARK BRAVO MURILLO,"Calle BRAVO MURILLO, 303, Madrid",40.46217190000001,-3.697791799999999,28020,Madrid,Madrid,Community of Madrid,Spain
codere,CERVANTES,"PASEO DE RONDA, 24, Coruña",43.3676995,-8.420569,15011,A Coruña,A Coruña,Galicia,Spain
codere,CORSAN,"NA SAURINA D´ENTENZA, 16",38.70054,-0.480916,03803,Alcoi,Alcoy,Valencian Community,Spain
codere,Casino Park Cigüeña,"Calle CIGÜEÑA, 39, Logroño",42.46498,-2.4313173,26004,Logroño,Logroño,La Rioja,Spain
codere,Colon,"Calle COLON, 9, Vigo",42.24059889999999,-8.7207268,36201,Vigo,Vigo,Galicia,Spain
codere,EL MOLINO,"Calle LEPANTO, 1, Talavera de la Reina",39.9622555,-4.818489899999999,45600,Talavera de la Reina,Talavera de la Reina,Castile-La Mancha,Spain
codere,ELECTRONICS GIRONA,"Paseo CANALEJAS, 1, Girona",41.986463,2.823635,17001,Girona,Girona,Catalonia,Spain
codere,Establecimiento de Juegos Europa,"Avenida Europa, 17, Sonseca",39.6809922,-3.9711007,45100,Sonseca,Sonseca,Castile-La Mancha,Spain
codere,F P LBO VALDEMORO,"Mediterraneo, 140, Valdemoro",40.1912403,-3.6740182,28341,Valdemoro,Valdemoro,Community of Madrid,Spain
codere,FP LBO CALLE VALENCIA,"VALENCIA, 6, Fuenlabrada",39.4736897,-0.4118149,46920,Valencia,Valencia,Valencian Community,Spain
codere,FP LBO CARABANCHEL ALTO,"CARABANCHEL ALTO, 62, Madrid",40.3700456,-3.753296,28044,Madrid,Madrid,Community of Madrid,Spain
codere,FP LBO COLMENAR DE OREJA,"MADRID, 2",40.1098823,-3.39055,28380,Colmenar de Oreja,Colmenar de Oreja,Community of Madrid,Spain
codere,FP LBO GENERAL RICARDOS 83,"GENERAL RICARDOS, 83, Madrid",40.3935402,-3.722784099999999,28019,Madrid,Madrid,Community of Madrid,Spain
codere,FP LBO USERA,"JULIO MERINO, 3, Madrid",40.3830707,-3.7027785,28026,Madrid,Madrid,Community of Madrid,Spain
codere,GRAN CASTELLON,"RAMON Y CAJAL, 29",39.9810639,-0.0386392,12002,Castellón de la Plana,Castellón de la Plana,Valencian Community,Spain
codere,ISLA DE PAQUETA,"ZAMORA, 78, Vigo",42.2208668,-8.7307809,36211,Vigo,Vigo,Galicia,Spain
codere,JACKPOT,"Calle CIRCUMVALACIO, 6, Manresa",37.2273788,-121.9808364,95030,Los Gatos,,California,United States
codere,JOKER ADRA PASEO,"MARITIMO, 58",36.74778999999999,-3.02155,04770,Adra,Adra,Andalusia,Spain
codere,JOKER AEROPUERTO,"DEL AEROPUERTO, 5",25.9926501,-111.3529565,,,,Baja California Sur,Mexico
codere,JOKER AGUIRRE,"Calle FRANCISCO AGUIRRE, 200, Talavera de la Reina",39.96871050000001,-4.829072399999999,45600,Talavera de la Reina,Talavera de la Reina,Castile-La Mancha,Spain
codere,JOKER ALBACETE,"Calle HELLIN, 5, Albacete",38.9832298,-1.8578213,02002,Albacete,Albacete,Castile-La Mancha,Spain
codere,JOKER ALGECIRAS CARMEN,"DEL CARMEN, 61",36.1361332,-5.446272899999999,11202,Algeciras,Algeciras,Andalusia,Spain
codere,JOKER ALGECIRAS PLAZAANDALUCIA,ANDALUCIA,36.132071,-5.452078999999999,11201,Algeciras,Algeciras,Andalusia,Spain
codere,JOKER ALICANTE,"Rambla MENDEZ NUÑEZ, 9, Alacant",38.3447781,-0.4837015,03001,Alicante,Alicante,Valencian Community,Spain
codere,JOKER ALMUÑECAR,"ANDALUCIA, 25",36.7774061,-3.7333537,18690,,Almuñécar,Andalusia,Spain
codere,JOKER ANDUJAR LOND,"LONDRES, 3",51.5073509,-0.1277583,SW1A,London,,England,United Kingdom
codere,JOKER BAILEN ORTEGA,"ORTEGA Y GASSET, 1",38.0963811,-3.7789691,23710,Bailén,Bailén,Andalusia,Spain
codere,JOKER CIUDAD REAL,"Calle MORERIA, 21, Ciudad Real",38.9862403,-3.9332052,13002,Ciudad Real,Ciudad Real,Castile-La Mancha,Spain
codere,JOKER CONSTITUCION,"DE LA CONSTITUCION, 23",,,,,,,
codere,JOKER CORDOBA FORMENTERA,"ISLA FORMENTERA, 8 ESQ. ISLA DEL HIERRO, Cordoba",37.8881569,-4.798958499999999,14011,Córdoba,Córdoba,Andalusia,Spain
codere,JOKER CORDOBA GRANADA,"GRANADA, 15",37.8881751,-4.7793835,14001,Córdoba,Córdoba,Andalusia,Spain
codere,JOKER CORDOBA NASIR,"ALNASIR, 10",37.8951701,-4.776410800000001,14006,Córdoba,Córdoba,Andalusia,Spain
codere,JOKER CREVILLENTE,"Calle SAN VICENTE FERRER, 15, Crevillent",38.2459248,-0.8073543,03330,Crevillent,Crevillent,Valencian Community,Spain
codere,JOKER EJIDO STAMARIA,"SANTA MARIA DEL AGUILA, 47",36.7851163,-2.7719388,04710,Santa María del Águila,El Ejido,Andalusia,Spain
codere,JOKER EJIDO TENIENTE,"TENIENTE ARTURO MUÑOZ, 1",36.7724731,-2.8112452,04700,El Ejido,El Ejido,Andalusia,Spain
codere,JOKER ESTEPONA CID,"CID, 6",36.4283432,-5.1453448,29680,Estepona,Estepona,Andalusia,Spain
codere,JOKER FRIGILIANA,"FRIGILIANA, 4",36.7908751,-3.8947061,29788,Frigiliana,Frigiliana,Andalusia,Spain
codere,JOKER FUENGIROLA,"DE LA CONSTITUCION, 6",36.5385111,-4.623469099999999,29640,Fuengirola,Fuengirola,Andalusia,Spain
codere,JOKER GRANADA AMER,"AMERICA, 46",37.1773363,-3.5985571,18001,Granada,Granada,Andalusia,Spain
codere,JOKER GRANADA RONDA,"CAMINO DE RONDA, 134",37.1744175,-3.6081943,18004,Granada,Granada,Andalusia,Spain
codere,JOKER HUELVA FLAMINGO,JOSE MUÑOZ VARGAS,37.261421,-6.9447224,21004,Huelva,Huelva,Andalusia,Spain
codere,JOKER HUELVA ITALIA,"DE ITALIA, 55",37.2539202,-6.9517083,21003,Huelva,Huelva,Andalusia,Spain
codere,JOKER HUELVA PICASSO,Galaroza,37.261421,-6.9447224,21004,Huelva,Huelva,Andalusia,Spain
codere,JOKER HUELVA ROYAL,"ESCRITOR LUIS MANZANO, 2",37.2644478,-6.9541713,21002,Huelva,Huelva,Andalusia,Spain
codere,JOKER II,"MARIA AUXILIADORA, 1, Badajoz",38.870098,-6.978485699999999,06010,Badajoz,Tierra de Badajoz,Extremadura,Spain
codere,JOKER JAEN MADRID,"AVENIDA DE MADRID, 56",37.7749882,-3.7856194,23008,Jaén,Jaén,Andalusia,Spain
codere,JOKER JUANCARLOS,"JUAN CARLOS I, 42",40.7303271,-73.9986472,10012,New York,,New York,United States
codere,JOKER MALAGA PELAYO,"PELAYO, 1",36.7215695,-4.432766,29007,Málaga,Málaga,Andalusia,Spain
codere,JOKER MARBELLA PLAZAOLIVOS,JACINTO BENAVENTE 5,36.5107541,-4.8875223,29601,Marbella,Marbella,Andalusia,Spain
codere,JOKER MEDITERRANEO,"DEL MEDITERRANEO, 356",,,,,,,
codere,JOKER MOJONERA EUROPA,"DE EUROPA, 200",36.7531816,-2.6822356,04745,La Mojonera,La Mojonera,Andalusia,Spain
codere,JOKER MOTRIL ANCHA,"ANCHA, 34",36.7521056,-3.5144062,18600,Motril,Motril,Andalusia,Spain
codere,JOKER OCHOTORENA,"ANGEL OCHOTORENA, 4",36.84247910000001,-2.4542141,04005,Almería,Almería,Andalusia,Spain
codere,JOKER PETRER,"Avenida MADRID 1, Petrer",38.47739,-0.784144,03610,Elda,Petrer,Valencian Community,Spain
codere,JOKER POZOSDULCES,"Pozos Dulces, Esq. Angel Urdaiz",36.7221102,-4.423422,29008,Málaga,Málaga,Andalusia,Spain
codere,JOKER PRINCIPE,"Avenida DEL PRINCIPE FELIPE, 16, Talavera de la Reina",39.965177,-4.816892,45600,Talavera de la Reina,Talavera de la Reina,Castile-La Mancha,Spain
codere,JOKER PUERTOLLANO,"Calle PRIMERO DE MAYO, 1, Puertollano",38.6867385,-4.1061619,13500,Puertollano,Puertollano,Castile-La Mancha,Spain
codere,JOKER QUINTERO SEV,FLORENCIO QUINTERO,,,,,,,
codere,JOKER SANANTON,"SAN ANTON, 73",29.4241219,-98.49362819999999,78205,San Antonio,,Texas,United States
codere,JOKER SANJUANDEDIOS,Calle San Juan de Dios 14,37.1803449,-3.6026085,18001,Granada,Granada,Andalusia,Spain
codere,JOKER SEVILLA ARJONA,"ARJONA, 10",37.3890924,-5.9844589,41003,Seville,Seville,Andalusia,Spain
codere,JOKER TOLEDO,"Avenida IRLANDA, 5, Toledo",39.88198089999999,-4.0319898,45005,Toledo,Toledo,Castile-La Mancha,Spain
codere,JOKER TOLEDO POLIGON,"Calle Rio Alberche, 9, Toledo",39.8647572,-3.9537224,45007,Toledo,Toledo,Castile-La Mancha,Spain
codere,JOKER TORREMOLINOS,"RAMAL DEL HOYO, 12",36.6265566,-4.5160396,29620,,Torremolinos,Andalusia,Spain
codere,JOKER V,"VEGAS ALTAS, 9, Villanueva",38.97357520000001,-5.7997323,06700,Villanueva de la Serena,Villanueva de la Serena,Extremadura,Spain
codere,JOKER VALDEPEÑAS,"Calle CRISTO, 62, Valdepeñas",38.75945,-3.387723,13300,Valdepeñas DO,Valdepeñas,Castile-La Mancha,Spain
codere,JOKER VELEZ CARMEN,"PORTERIA DEL CARMEN, 9",36.781934,-4.1047994,,Vélez-Málaga,Vélez-Málaga,Andalusia,Spain
codere,JOKER VICAR BULEVAR,"CIUDAD DE VICAR, 515",36.80350680000001,-2.6311144,04738,,Vícar,Andalusia,Spain
codere,JOKER VILLARROBLEDO,"REYES CATOLICOS, 56",39.2660973,-2.5970535,02600,Villarrobledo,Villarrobledo,Castile-La Mancha,Spain
codere,Joker Alcazar,"Poetisa Isabel Prieto, 2, Alcázar de San Juan",39.3934219,-3.2195738,13600,Alcázar de San Juan,Alcázar de San Juan,Castile-La Mancha,Spain
codere,Joker I,"Canalejas, 4, Don Benito",38.9613816,-5.8565403,06400,Don Benito,Don Benito,Extremadura,Spain
codere,LAS VEGAS,"Carretera VALENCIA, 58, Motilla del Palancar",39.5610804,-1.9060963,16200,Motilla del Palancar,Motilla del Palancar,Castile-La Mancha,Spain
codere,LAS VEGAS II,"Malaga, 54, Rute",36.1699412,-115.1398296,89101,Las Vegas,,Nevada,United States
codere,LAS VEGAS IV,"Jose Solis 68, Cabra",36.1699412,-115.1398296,89101,Las Vegas,,Nevada,United States
codere,LAS VEGAS V,"Miguel Cruz Cuenca, Lucena",37.408584,-4.493436,14900,Lucena,Lucena,Andalusia,Spain
codere,LBO ARGANDA DEL REY,"Calle PILAR, 1, Arganda del Rey",40.301109,-3.437692,28500,Arganda del Rey,Arganda del Rey,Community of Madrid,Spain
codere,LBO AVENIDA DE AMERICA,"Avenida AMERICA, 7, Madrid",40.43832,-3.67645,28002,Madrid,Madrid,Community of Madrid,Spain
codere,LBO BADAIA,"BADAIA, 23",,,,,,,
codere,LBO BOADILLA,"Avenida INFANTE DE LUIS, 7, Boadilla del Monte",40.40684770000001,-3.8956434,28660,Boadilla del Monte,Boadilla del Monte,Community of Madrid,Spain
codere,LBO BRUNETE,"REAL DE SAN SEBASTIAN, 27, Brunete",40.4020614,-3.996128,28690,Brunete,Brunete,Community of Madrid,Spain
codere,LBO BURGOS,"DE LA PAZ, 16, Burgos",,,,,,,
codere,LBO CAMPAMENTO,"GALICIA, 14, Madrid",42.5750554,-8.1338558,36519,,Lalín,Galicia,Spain
codere,LBO CAPITAN BLANCO ARGIBAY,"CAPITAN BLANCO ARGIBAY, 24, Madrid",40.4652171,-3.6976931,28029,Madrid,Madrid,Community of Madrid,Spain
codere,LBO CHAPLIN,"CARDENAL D ES PUIG, 3, Palma de Mallorca",39.5785083,2.6639849,07008,Palma,Palma,Balearic Islands,Spain
codere,LBO CHORRILLO,"Avenida Ajalvir, 2, Alcala De Henares",40.4898165,-3.3760695,28806,Alcala de Henares,Alcalá de Henares,Community of Madrid,Spain
codere,LBO COLMENAR,"Calle REAL, 1, Colmenar Viejo",36.9048387,-4.3367416,29170,Colmenar,Colmenar,Andalusia,Spain
codere,LBO COLON,"COLON, 6, Logroño",42.4627195,-2.4449852,26003,Logroño,Logroño,La Rioja,Spain
codere,LBO CORRALES,"CANTEROS DE BUELNA, 1, Los Corrales De Buelna",43.2595245,-4.0692379,39400,Los Corrales de Buelna,Los Corrales de Buelna,Cantabria,Spain
codere,LBO CORVERA ASTURIAS,"ARMANDO PALACIO VALDES 1, Corvera",43.5370599,-5.90165,33404,,Corvera de Asturias,Asturias,Spain
codere,LBO CRISTO DE LA VICTORIA,"CRISTO DE LA VICTORIA, 185, Madrid",40.3790546,-3.7056839,28026,Madrid,Madrid,Community of Madrid,Spain
codere,LBO DAGANZO,"PRINCIPE FELIPE, 18, Daganzo De Arriba",40.5439892,-3.4580034,28814,Daganzo de Arriba,Daganzo de Arriba,Community of Madrid,Spain
codere,LBO DOCTOR IRANZO,"DOCTOR IRANZO, 43, Zaragoza",41.6457589,-0.8643613,50002,Zaragoza,Zaragoza,Aragon,Spain
codere,LBO EIBAR,"JUAN GISASOLA KALEA, 20",43.1818305,-2.4720992,20600,Eibar,Eibar,Basque Country,Spain
codere,LBO ESCORIAL ,"Avenida de la Arboleda, 16, El Escorial",40.58354,-4.130669999999999,28280,El Escorial,El Escorial,Community of Madrid,Spain
codere,LBO ETRURIA,"ETRURIA, 3, Madrid",40.4358742,-3.6121318,28022,Madrid,Madrid,Community of Madrid,Spain
codere,LBO FUENLABRADA,Avenida de España 12,40.2902056,-3.8035477,28943,Fuenlabrada,Fuenlabrada,Community of Madrid,Spain
codere,LBO GIJON GASPAR GARCIA,"GASPAR GARCIA LAVIANA, 59, Gijón",43.5261048,-5.6677085,33210,Gijón,,Asturias,Spain
codere,LBO GUADARRAMA,"GUADARRAMA, 26, Madrid",40.6731798,-4.0875528,28440,Guadarrama,Guadarrama,Community of Madrid,Spain
codere,LBO MALIAÑO,"MENENDEZ PELAYO, 21, Maliaño",43.417711,-3.843463799999999,39600,Maliaño,Camargo,Cantabria,Spain
codere,LBO MARCELO USERA,"MARCELO USERA, 3, Madrid",40.3875952,-3.7001696,28026,Madrid,Madrid,Community of Madrid,Spain
codere,LBO MARQUES DE CORBERA,"SAN MAXIMILIANO, 12",40.4234608,-3.6554868,28017,Madrid,Madrid,Community of Madrid,Spain
codere,LBO MASQUEFA,"Calle MASQUEFA, 68, Valencia",41.501395,1.8141603,08783,Masquefa,Masquefa,Catalonia,Spain
codere,LBO MISLATA,"PALLETER 2, Mislata",39.4720854,-0.4127758,46920,Valencia,Valencia,Valencian Community,Spain
codere,LBO MOSTOLES,"Calle NUEVA YORK, 34, Móstoles",40.3151584,-3.8551997,28938,Móstoles,Móstoles,Community of Madrid,Spain
codere,LBO PAMPLONA,"Plaza DEL CASTILLO, 2, Pamplona",42.8163309,-1.6434907,31001,Pamplona,Pamplona,Navarre,Spain
codere,LBO PEÑA PRIETA,"PEÑA PRIETA, 46, Madrid",40.400969,-3.6657237,28038,Madrid,Madrid,Community of Madrid,Spain
codere,LBO PLAZA COLUMNAS,"FRANCISCO MANUEL DE LOS HERREROS, 7, Palma de Mallorca",39.5729712,2.6602503,07006,Palma,Palma,Balearic Islands,Spain
codere,LBO PLAZA MADRID,"PASCUAL RIBOT-ESQ ANTONIO Mª ALCOVER, 23, Palma de Mallorca",39.5779655,2.6399707,07011,Palma,Palma,Balearic Islands,Spain
codere,LBO PLAZA OBELISCO,"FRANCESC SANCHO, 13, Palma de Mallorca",39.5794637,2.6564183,07004,Palma,Palma,Balearic Islands,Spain
codere,LBO POZUELO,"Avenida EUROPA parcela 24. poligono I, 16, Pozuelo de Alarcón",40.4382616,-3.7935352,28224,Pozuelo de Alarcón,Pozuelo de Alarcón,Community of Madrid,Spain
codere,LBO Ponferrada,"General Vives 6, Ponferrada",42.54663619999999,-6.5917526,24400,Ponferrada,Ponferrada,Castile and León,Spain
codere,LBO RAFAEL SALGADO,"Calle RAFAEL SALGADO, 3, Madrid",40.4544488,-3.6887693,28036,Madrid,Madrid,Community of Madrid,Spain
codere,LBO RECAS,"GENERALISIMO, 2, Recas",,,,,,,
codere,LBO RIBARROJA DEL TURIA,Micalet 2 - Riba-roja de Túria,39.5454532,-0.5704575,46190,Riba-roja de Túria,Riba-roja de Túria,Valencian Community,Spain
codere,LBO SAN LAZARO,"SAN LAZARO, 2, Oviedo",43.3619145,-5.8493887,33007,Oviedo,Oviedo,Asturias,Spain
codere,LBO SAN LORENZO DEL ESCORIAL,"CALLE LAS POZAS, 17",40.5930226,-4.1474925,28200,San Lorenzo de El Escorial,San Lorenzo de El Escorial,Community of Madrid,Spain
codere,LBO SAN MAMES,"Alameda SAN MAMES, 8, Bilbao",43.2577822,-2.9350732,48010,Bilbao,Bilbao,Basque Country,Spain
codere,LBO SAN MARTIN,"DOCTOR ALEJANDRO SAN MARTIN, 2, Pamplona",42.8130306,-1.6373698,31004,Pamplona,Pamplona,Navarre,Spain
codere,LBO SAN SEBASTIAN DE LOS REYES,"Avenida COLMENAR VIEJO, 1, San Sebastián de los Reyes",40.5450935,-3.6285043,28701,San Sebastián de los Reyes,San Sebastián de los Reyes,Community of Madrid,Spain
codere,LBO SARRIA,"DE SARRIA, 52, Madrid",42.7600365,-7.4165053,27618,,Sarria,Galicia,Spain
codere,LBO SESEÑA,"ANCHA, 10, Seseña Viejo",40.1051029,-3.6927472,45223,Seseña,Seseña,Castile-La Mancha,Spain
codere,LBO SESTAO,"SAN PEDRO, 10",33.7360619,-118.2922461,90731,Los Angeles,,California,United States
codere,LBO SILLA,"INDEPENDENCIA, 32, Silla",,,,,,,
codere,LBO TOLEDO,"RIO RETAMOSILLO, 21, Toledo",41.6528052,-83.5378674,43604,Toledo,,Ohio,United States
codere,LBO TORDESILLAS,GUTIERREZ MELLADO,41.5015353,-4.998745899999999,47100,Tordesillas,Tordesillas,Castile and León,Spain
codere,LBO TORREJON DE LA CALZADA,"REAL, 22, Torrejon Calzada",40.2016981,-3.7999099,28991,Torrejón de la Calzada,Torrejón de la Calzada,Community of Madrid,Spain
codere,LBO TUDELA,"Calle YANGUAS Y MIRANDA, 2, Tudela",42.0617763,-1.6065142,31500,Tudela,Tudela,Navarre,Spain
codere,LBO VALDEZARZA,"ARTAJONA, 17, Madrid",40.4633112,-3.7180769,28039,Madrid,Madrid,Community of Madrid,Spain
codere,LBO VALVERDE DE LEGANES,"Avenida Badajoz, 3, Valverde De Leganes",38.6717255,-6.981403599999999,06130,Valverde de Leganés,Valverde de Leganés,Extremadura,Spain
codere,LBO VILLAAMIL,"VILLAAMIL, 76, Madrid",40.4615996,-3.7080493,28039,Madrid,Madrid,Community of Madrid,Spain
codere,LITORAL,"Plaza SAGRADO CORAZON, 4, Cedeira",43.6603442,-8.055074,15350,Cedeira,Cedeira,Galicia,Spain
codere,LOCOMATIC SPORT BAR CALZADA DE CALATRAVA,CORONEL MOLINA 9,38.7038952,-3.777409,13370,Calzada de Calatrava,Calzada de Calatrava,Castile-La Mancha,Spain
codere,LOFT 27,"Rosalia De Castro, 9, O Carballiño",42.4302944,-8.077992799999999,32500,O Carballiño,O Carballiño,Galicia,Spain
codere,LUNAPARK Los Barrios,"LA PLATA, 43",29.4858652,-98.5082371,78212,San Antonio,,Texas,United States
codere,Las Vegas Atocha,"RONDA DE ATOCHA, 12, Madrid",40.4068416,-3.696559999999999,28012,Madrid,Madrid,Community of Madrid,Spain
codere,Lbo Astillero,"de la Constitución, 10",43.3983734,-3.822281,39610,Astillero,El Astillero,Cantabria,Spain
codere,Lbo Benidorm,"JUAN ANTONIO BALDOVI, 3",38.5312239,-0.1648978,03502,Benidorm,Benidorm,Valencian Community,Spain
codere,Lbo Ciempozuelos,"Avenida del Consuelo, 6, Ciempozuelos",40.1583277,-3.6212102,28350,Ciempozuelos,Ciempozuelos,Community of Madrid,Spain
codere,Lbo Logroño Murrieta,"Marques de Murrieta, 31, Logroño",42.4647916,-2.456237,26005,Logroño,Logroño,La Rioja,Spain
codere,Lbo Prados,"Valmojado, 231, Madrid",40.3889484,-3.7584679,28047,Madrid,Madrid,Community of Madrid,Spain
codere,Lbo Puerto De Porzuna,"Puerto De Porzuna, 3",39.1468093,-4.155215399999999,13120,Porzuna,Porzuna,Castile-La Mancha,Spain
codere,Lbo San Martin De Valdeiglesias,"Corredera Baja, 20 local 4, San Martín de Valdeiglesias",40.3615428,-4.399744099999999,28680,San Martín de Valdeiglesias,San Martín de Valdeiglesias,Community of Madrid,Spain
codere,Lbo Villanueva De La Cañada,"Cristo, 24, Villanueva de la Cañada",40.4482536,-3.998837,28691,Villanueva de la Cañada,Villanueva de la Cañada,Community of Madrid,Spain
codere,MADRID JUEGOS,"Calle ALBUFERA, 17, Madrid",40.3975681,-3.6674484,28038,Madrid,Madrid,Community of Madrid,Spain
codere,MADRID JUEGOS,"Calle CERVANTES, 29, Alcalá de Henares",40.483346,-3.364797,28801,Alcala de Henares,Alcalá de Henares,Community of Madrid,Spain
codere,MADRID JUEGOS,"Calle MARQUES DE VALDAVIA, 57, Alcobendas",40.54381900000001,-3.6415522,28100,Alcobendas,Alcobendas,Community of Madrid,Spain
codere,MADRID JUEGOS,"Calle ESPOZ Y MINA, 2, Madrid",40.4165211,-3.7023542,28012,Madrid,Madrid,Community of Madrid,Spain
codere,MADRID JUEGOS,"Calle MONFORTE DE LEMOS, 119, Madrid",40.4780944,-3.709380599999999,28029,Madrid,Madrid,Community of Madrid,Spain
codere,MADRID JUEGOS,"Calle MONTERA, 44, Madrid",40.41948,-3.70157,28013,Madrid,Madrid,Community of Madrid,Spain
codere,MADRID JUEGOS,"Calle MONTERA, 5, Madrid",40.4174284,-3.7030493,28013,Madrid,Madrid,Community of Madrid,Spain
codere,MADRID JUEGOS,"Avenida CONSTITUCION, 2, Móstoles",40.3231323,-3.8638366,28931,Móstoles,Móstoles,Community of Madrid,Spain
codere,MADRID JUEGOS,"Calle PRECIADOS, 32, Madrid",40.4197768,-3.706429399999999,28013,Madrid,Madrid,Community of Madrid,Spain
codere,MADRID JUEGOS,"Calle VIRGEN DE LA ROCA, 9, Madrid",40.4338722,-3.6587382,28027,Madrid,Madrid,Community of Madrid,Spain
codere,MADRID JUEGOS,"Calle VIRGEN DEL SAGRARIO, 3, Madrid",40.4340577,-3.6477999,28027,Madrid,Madrid,Community of Madrid,Spain
codere,MADRID JUEGOS ARGANDA,"Calle MISERICORDIA, 1, Arganda del Rey",40.3014735,-3.4415725,28500,Arganda del Rey,Arganda del Rey,Community of Madrid,Spain
codere,MARA,"Avenida TENOR FLETA, 63, Zaragoza",41.6386354,-0.8788324999999999,50008,Zaragoza,Zaragoza,Aragon,Spain
codere,MONTECASINO,"Calle PUIG CAMPANA, 1, Benidorm",38.538351,-0.1343601,03501,Benidorm,Benidorm,Valencian Community,Spain
codere,NEVADA ALCORCON,"Calle MAYOR, 54, Alcorcón",40.3460356,-3.8278243,28921,Alcorcón,Alcorcón,Community of Madrid,Spain
codere,NEVADA AMERICA,"Calle RAMOS CARRION, 11, Madrid",40.4466264,-3.6681468,28002,Madrid,Madrid,Community of Madrid,Spain
codere,NEVADA ATOCHA,"Calle TORTOSA, 3, Madrid",40.4064128,-3.6927134,28045,Madrid,Madrid,Community of Madrid,Spain
codere,NEVADA CUATRO CAMINOS,"Calle REINA VICTORIA, 5, Madrid",40.4466704,-3.7046417,28003,Madrid,Madrid,Community of Madrid,Spain
codere,NEVADA EMBAJADORES,"Calle EMBAJADORES, 43, Madrid",40.4071772,-3.7036452,28012,Madrid,Madrid,Community of Madrid,Spain
codere,NEVADA FUENCARRAL,"Calle JERONIMO DE LA QUINTANA, 11, Madrid",40.4313158,-3.7046841,28010,Madrid,Madrid,Community of Madrid,Spain
codere,NEVADA FUENLABRADA,"Calle CONSTITUCION, 59, Fuenlabrada",38.8026097,-116.419389,,,,Nevada,United States
codere,NEVADA GETAFE,"Calle MADRID, 11, Getafe",40.305879,-3.7315155,28901,Getafe,Getafe,Community of Madrid,Spain
codere,NEVADA GOYA,"Avenida FELIPE II, 4, Madrid",40.4238658,-3.6767918,28009,Madrid,Madrid,Community of Madrid,Spain
codere,NEVADA MARCELO USERA,"Calle MARCELO USERA, 84, Madrid",40.38585740000001,-3.7065397,28026,Madrid,Madrid,Community of Madrid,Spain
codere,NEVADA OPORTO,"Calle OPORTO, 91, Madrid",40.3878742,-3.7317279,28019,Madrid,Madrid,Community of Madrid,Spain
codere,NEVADA PARLA,"Calle SEVERO OCHOA, 16, Parla",38.8026097,-116.419389,,,,Nevada,United States
codere,NEVADA PRINCESA,"Calle BLASCO DE GARAY, 15, Madrid",40.431552,-3.711828799999999,28015,Madrid,Madrid,Community of Madrid,Spain
codere,NEVADA QUEVEDO,"Calle ARAPILES, 5, Madrid",40.433295,-3.7050048,28015,Madrid,Madrid,Community of Madrid,Spain
codere,NEVADA SAN DIEGO,"Calle DOCTOR BELLIDO, 2, Madrid",38.8026097,-116.419389,,,,Nevada,United States
codere,NEVADA TETUAN,"Calle BRAVO MURILLO, 155, Madrid",40.4466704,-3.7046417,28003,Madrid,Madrid,Community of Madrid,Spain
codere,NEVADA VALLECAS,"Calle PEDRO LABORDE, 49, Madrid",40.386412,-3.6496624,28018,Madrid,Madrid,Community of Madrid,Spain
codere,NEW POKER,"Calle ANTONIO MACHADO, 83, Albacete",38.9918445,-1.8650328,02004,Albacete,Albacete,Castile-La Mancha,Spain
codere,NOVOMATIC POZUELO,"Plaza GOBERNADOR C.C. La estacion local 25, 3, Pozuelo de Alarcón",40.4475864,-3.8009751,28224,Pozuelo de Alarcón,Pozuelo de Alarcón,Community of Madrid,Spain
codere,Nevada Alcala,"Calle ALCALA (esquina arturo soria), 419, Madrid",38.8026097,-116.419389,,,,Nevada,United States
codere,OLIVA  SALON,"Calle LUIS VIVES, 19, Oliva",38.9197587,-0.1187855,46780,Oliva,Oliva,Valencian Community,Spain
codere,Oper Salon,"Triunfo Santa Marina, 17, Fernan Nuñez",37.669936,-4.7255956,14520,Fernán Núñez,Fernán Núñez,Andalusia,Spain
codere,Oper Salon Ecija,"John Lennon, 2",37.5414656,-5.0826742,41400,Écija,Écija,Andalusia,Spain
codere,Oper Salon Fuentes De Andalucia,"Explanada De La Estación, 4",37.4631866,-5.3431248,41420,Fuentes de Andalucía,Fuentes de Andalucía,Andalusia,Spain
codere,Oper Salon La Campana,Av. De Lora Del Rio,37.6563895,-5.524790599999999,41440,Lora del Río,Lora del Río,Andalusia,Spain
codere,Oper Salon Osuna,"Alfonso XII, 65",37.2395285,-5.1102679,41640,Osuna,Osuna,Andalusia,Spain
codere,Oper Salon Pozoblanco,"Marcos Redondo, 13",38.3770629,-4.8494709,14400,Pozoblanco,Pozoblanco,Andalusia,Spain
codere,PACHECO,"LUGAR OUTEIRO, 102, Rianxo",42.68085,-8.8137399,15985,,Rianxo,Galicia,Spain
codere,PLAY AND WIN,"Av. de Vicent Mortes Alfonso, 51, Paterna",39.5071587,-0.4484835,46980,Paterna,Paterna,Valencian Community,Spain
codere,PLENO AL 15,"Calle DOUTOR LOUREIRO CRESPO, 69, Pontevedra",32.3182314,-86.902298,36785,,,Alabama,United States
codere,Picadilly Cascorro,"Plaza CASCORRO, 5, Madrid",40.411127,-3.7074085,28005,Madrid,Madrid,Community of Madrid,Spain
codere,RECREATIVOS LUCKY PLAY,"Calle ABTAO, 10, Madrid",40.4038015,-3.6760306,28007,Madrid,Madrid,Community of Madrid,Spain
codere,REY DON JAIME,"PEREZ GALDOS, 19, Castellon",39.986493,-0.0461791,12002,Castellón de la Plana,Castellón de la Plana,Valencian Community,Spain
codere,ROYAL VIGO,"Avenida GARCIA BARBON, 34, Vigo",42.2367672,-8.7157119,36201,Vigo,Vigo,Galicia,Spain
codere,S  J  Joker III,"LOPEZ DE AYALA, 13, Almendralejo",38.679397,-6.4114714,06200,Almendralejo,Almendralejo,Extremadura,Spain
codere,S  J  Joker Madridejos,"Calle Juan Carlos I, 2, Madridejos",39.4680372,-3.5355342,45710,Madridejos,Madridejos,Castile-La Mancha,Spain
codere,S  J  Lbo Sport Land,"Hermanos Jimenez, 3, Albacete",38.9959989,-1.8673741,02004,Albacete,Albacete,Castile-La Mancha,Spain
codere,S  J  Madrid Juegos,"Plaza DOCTOR MARAÑON, 10, Coslada",40.4263847,-3.5627258,28821,Coslada,Coslada,Community of Madrid,Spain
codere,S  J  Onnea,"Fonda, 9, Sueca",40.7229186,-73.9830399,10009,New York,,New York,United States
codere,S  J  Picasso,"Santa Isabel, 5, Vinaròs",40.4672606,0.4679549999999999,12500,Vinaròs,Vinaròs,Valencian Community,Spain
codere,S  J  ROYAL CROWN LEGANES,"DE LOS PEDROCHES, 13",40.33614,-3.7517,28915,Leganés,Leganés,Community of Madrid,Spain
codere,S FRAGATA Algeciras,"GESTO POR LA PAZ, 48",36.1227925,-5.4510136,11206,Algeciras,Algeciras,Andalusia,Spain
codere,S J  Joker Illescas,"Castilla La Mancha, 58, Illescas",40.1262812,-3.8489895,45200,Illescas,Illescas,Castile-La Mancha,Spain
codere,S J ADMIRAL CARIHUELA,"MAR, 5, Torremolinos",36.6076282,-4.5046061,29620,Torremolinos,Torremolinos,Andalusia,Spain
codere,S J ADMIRAL ESTEPONA,"AV. ANDALUCIA, Estepona",36.4313906,-5.1463386,29680,Estepona,Estepona,Andalusia,Spain
codere,S J ADMIRAL FUENGIROLA,"AV. MATIAS SAENZ DE TEJADA, 1, Fuengirola",36.5413363,-4.6227523,29640,Fuengirola,Fuengirola,Andalusia,Spain
codere,S J ADMIRAL MANANTIALES,"AV. DE LOS MANANTIALES, 21, Torremolinos",36.6268156,-4.502712,29620,Torremolinos,Torremolinos,Andalusia,Spain
codere,S J ADMIRAL MARBELLA,"AV. ARIAS MALDONADO, 5, Marbella",36.509827,-4.8928896,29602,Marbella,Marbella,Andalusia,Spain
codere,S J ADMIRAL PUERTO BANUS,"DE LAS NACIONES UNIDAS, C.C. CRISTAMAR, Nueva Andalucia",36.4917692,-4.9514789,29660,Marbella,Marbella,Andalusia,Spain
codere,S J ADMIRAL RONDA,"DE ESPAÑA, 8, Ronda",36.746209,-5.161225099999999,29400,Ronda,Ronda,Andalusia,Spain
codere,S J ALL - IN VII,"DE LA CONSTITUCION, 2, San Agustin De Guadalix",40.6788466,-3.6163061,28750,San Agustín del Guadalix,San Agustín del Guadalix,Community of Madrid,Spain
codere,S J COMAR ENJOY PLAYING EL TEMPLE,"RÚA TAPIA, 18",43.3192159,-8.354262,15679,,Cambre,Galicia,Spain
codere,S J JOKER AGUADULCE,"CARLOS III, 192",36.8108466,-2.5853707,04720,,Roquetas de Mar,Andalusia,Spain
codere,S J JOKER ALBOLOTE CAPILLA,"FRANCISCO CAPILLA, S/N",37.2283225,-3.6543577,18220,Albolote,Albolote,Andalusia,Spain
codere,S J JOKER ALBOX LEPANTO,"LEPANTO, 26",37.3826577,-2.1376068,04800,Albox,Albox,Andalusia,Spain
codere,S J JOKER ALMERIA ARAPILES,"ARAPILES, 2",36.834047,-2.4637136,04001,Almería,Almería,Andalusia,Spain
codere,S J JOKER ALMERIA ESTACION,"DE LA ESTACION, LOCAL 336",36.8355649,-2.4544893,04006,Almería,Almería,Andalusia,Spain
codere,S J JOKER ALMERIA ZAPILLO,"CABO DE GATA, 129",36.8278401,-2.4502552,04007,Almería,Almería,Andalusia,Spain
codere,S J JOKER ATARFE ESTACION,"DE LA ESTACION, 19",37.2164422,-3.6975812,18230,,Atarfe,Andalusia,Spain
codere,S J JOKER BAZA MURCIA,"DE MURCIA, 2",37.4862228,-2.7769904,18800,Baza,Baza,Andalusia,Spain
codere,S J JOKER BERJA BARRIONUEVO,"JOSE BARRIONUEVO PEÑA, 79",36.8404061,-2.9435934,04760,Berja,Berja,Andalusia,Spain
codere,S J JOKER CADIZ BLASINFANTE,"DE ANDALUCIA, 2",36.5270612,-6.2885962,11006,Cádiz,Cádiz,Andalusia,Spain
codere,S J JOKER CADIZ CORTES,"DE LAS CORTES, 16",36.5221977,-6.2771516,11012,Cádiz,Cádiz,Andalusia,Spain
codere,S J JOKER CAMPOHERMOSO BENAHADUX,"BENAHADUX, 1",36.9377212,-2.1327491,04110,Campohermoso,Níjar,Andalusia,Spain
codere,S J JOKER CARBONERAS FARO,"FARO DE MESA ROLDAN, 30",36.9418247,-1.9066669,04149,,Carboneras,Andalusia,Spain
codere,S J JOKER CAÑADA NIJAR,"DE NIJAR, 11",36.7619796,-2.109435,04118,San José,Níjar,Andalusia,Spain
codere,S J JOKER CORDOBA CAIRO,"EL CAIRO, S/N",30.0444196,31.2357116,,Cairo,,Cairo Governorate,Egypt
codere,S J JOKER CORDOBA VICTORIA,"DE LA VICTORIA, 1",37.8863351,-4.7843857,14008,Córdoba,Córdoba,Andalusia,Spain
codere,S J JOKER CUEVAS PUENTEAZUD,"PUENTE DEL AZUD, 70",43.5513631,-5.9145865,33460,Aviles,Avilés,Asturias,Spain
codere,S J JOKER DOSHERMANAS REYESCATOLICOS,"REYES CATOLICOS, 103, Dos Hermanas",37.2758106,-5.9284839,41701,Dos Hermanas,Dos Hermanas,Andalusia,Spain
codere,S J JOKER GARRUCHA PASEO,MARITIMO,37.1885522,-1.817503,04630,,Garrucha,Andalusia,Spain
codere,S J JOKER GRANADA DILAR,"DE DILAR, 52",37.1563938,-3.6005208,18007,Granada,Granada,Andalusia,Spain
codere,S J JOKER GRANADA DILARMERKUR,"DE DILAR, 22",37.1773363,-3.5985571,18001,Granada,Granada,Andalusia,Spain
codere,S J JOKER GRANADA GALLO,"ANTIGUA DE MALAGA, 55",37.1889387,-3.6219532,18015,Granada,Granada,Andalusia,Spain
codere,S J JOKER GRANADA MENDEZ,"CAMINO DE RONDA, 119",37.1778332,-3.6109756,18003,Granada,Granada,Andalusia,Spain
codere,S J JOKER GRANADA SOCRATES,"SOCRATES, 10",37.1773363,-3.5985571,18001,Granada,Granada,Andalusia,Spain
codere,S J JOKER HUELVADECANO,"Jose Fariñas, esq. C/ Pastillo",,,,,,,
codere,S J JOKER IV,"Av. Virgen de Guadalupe, 41, Caceres",39.4674402,-6.385320099999999,10001,Cáceres‎,Cáceres,Extremadura,Spain
codere,S J JOKER JEREZ HUERTAPINTADA,"HUERTA PINTADA, 1, Jeres De La Frontera",36.68139499999999,-6.129675000000001,11401,Jerez,Jerez de la Frontera,Andalusia,Spain
codere,S J JOKER LALINEA CARREFOUR,"DE LA COLONIA, 9",36.1740543,-5.3635344,11300,,La Línea de la Concepción,Andalusia,Spain
codere,S J JOKER LASNORIAS MOJONERA,"LA MOJONERA, 104",36.7593427,-2.75318,04716,Las Norias,El Ejido,Andalusia,Spain
codere,S J JOKER MARBELLA ARIAS,"ARIAS DE VELASCO, 29 BAJO 2",36.5170273,-4.886870399999999,29601,Marbella,Marbella,Andalusia,Spain
codere,S J JOKER MOJACAR MONTEMAR,"ANDALUCIA, 6",37.1220313,-1.8611011,04638,,Mojácar,Andalusia,Spain
codere,S J JOKER NEPTUNO,"ARABIAL, 45 C.C. NEPTUNO",37.1681953,-3.6074423,18004,Granada,Granada,Andalusia,Spain
codere,S J JOKER OLULA BAJA,"CARRETERA BAJA, 11",37.354978,-2.293181,04860,,Olula del Río,Andalusia,Spain
codere,S J JOKER PINOSPUENTE REDONDA,REDONDA,37.2514515,-3.7496132,18240,Pinos Puente,Pinos Puente,Andalusia,Spain
codere,S J JOKER PULPI ANTONES,"AV. LOS ANTONES, 4",30.2660481,-97.7404002,78701,Austin,,Texas,United States
codere,S J JOKER ROQUETAS MOJONERA,"LA MOJONERA, 163",36.761876,-2.6314358,04740,Roquetas de Mar,Roquetas de Mar,Andalusia,Spain
codere,S J JOKER ROTA SANFERNANDO,"San Fernando, Bajo",36.6236874,-6.3601441,11520,Rota,Rota,Andalusia,Spain
codere,S J JOKER SABINAL,"AVD. DEL SABINAR, 307",29.3174576,-99.4664354,78881,Sabinal,,Texas,United States
codere,S J JOKER SANISIDRO CONSTITUCION,"DE LA CONSTITUCION, 169",36.9114665,-2.1732708,04117,San Isidro de Níjar,Níjar,Andalusia,Spain
codere,S J JOKER SEVILLA AERONAUTICA,"De la Aeronautica, 2",,,,,,,
codere,S J JOKER SEVILLA GRANPLAZA,"GRAN PLAZA, 5",32.6861787,-97.325244,76110,Fort Worth,,Texas,United States
codere,S J JOKER SEVILLA LUJAN,"VIRGEN DE LUJAN, 30, Sevilla",37.3747716,-6.0002609,41011,Seville,Seville,Andalusia,Spain
codere,S J JOKER VERASOL,RONDA DE VERASOL,,,,,,,
codere,S J Joker VI,"Ubaldo Sanchez, 6, Miajadas",39.1511633,-5.9082129,10100,Miajadas,Miajadas,Extremadura,Spain
codere,S J LAS VEGAS SPORTS BAR SESEÑA,"REMBRANDT, 8, Seseña",36.1699412,-115.1398296,89101,Las Vegas,,Nevada,United States
codere,S J LBO ARAUJO-FAJARDO,"FRANCOS RODRIGUEZ, 2, Hellin",18.3257869,-65.6523838,00738,Fajardo,,Fajardo,Puerto Rico
codere,S J LBO BADAJOZ,"PARDALERAS, 24",38.8794495,-6.9706535,06001,Badajoz,Tierra de Badajoz,Extremadura,Spain
codere,S J LBO CAMINO VIEJO LEGANES,"CAMINO VIEJO DE LEGANES, 166, Madrid",40.380417,-3.7319655,28025,Madrid,Madrid,Community of Madrid,Spain
codere,S J LBO CASAR DE CACERES,"MADRID, 1",39.5587084,-6.417053699999999,10190,Casar de Cáceres,Casar de Cáceres,Extremadura,Spain
codere,S J LBO CORIA,"SIERRA DE GATA, 32, Coria",39.9829198,-6.5143087,10800,,Coria,Extremadura,Spain
codere,S J LBO CUATRO ASES,"MAYOR, 90, Almaden",,,,,,,
codere,S J LBO ESTADIO,"ALBERCHE, S/N, Talavera De La Reina",40.3857159,-4.945403799999999,05123,,Navalosa,Castile and León,Spain
codere,S J LBO EZEQUIEL SOLANA,"EZEQUIEL SOLANA, 73, Madrid",40.4284559,-3.6430371,28017,Madrid,Madrid,Community of Madrid,Spain
codere,S J LBO GUAREÑA,"ESPAÑA, 8, Guareña",38.8636339,-6.1018241,06470,Guareña,Guareña,Extremadura,Spain
codere,S J LBO JARAIZ,"Zaragoza, 34, Jaraiz De La Vera",40.0620348,-5.7519117,10400,Jaraíz de la Vera,Jaraíz de la Vera,Extremadura,Spain
codere,S J LBO LA FAROLA,"SAN MARTIN, 18, Cabezon De La Sal",43.309084,-4.23766,39500,Cabezón de la Sal,Cabezón de la Sal,Cantabria,Spain
codere,S J LBO LLANES,"CUETO BAJO, 13, Llanes",43.4179584,-4.7543152,33500,Llanes,Llanes,Asturias,Spain
codere,S J LBO LOCOMATIC SPORT BAR,"RODOLFO PEREZ, 14, Moral de Calatrava",38.8273646,-3.577473,13350,Moral de Calatrava,Moral de Calatrava,Castile-La Mancha,Spain
codere,S J LBO MAYOR,"MAYOR, 42, Alcala De Henares",40.4819791,-3.3635421,28801,Alcala de Henares,Alcalá de Henares,Community of Madrid,Spain
codere,S J LBO OGADI I,"EMPEDRADA, 14, Olias Del Rey",39.94603040000001,-3.986384999999999,45280,Olías del Rey,Olías del Rey,Castile-La Mancha,Spain
codere,S J LBO OGADI II,"DE LA IGLESIA, 1, Bargas",,,,,,,
codere,S J LBO OLIVENZA,"FIRLARMONICA, 3",38.6826443,-7.1026661,06100,Olivenza,Olivenza,Extremadura,Spain
codere,S J LBO POLAN,"FELIX GUTIERREZ CANO, 1, Polan",39.790114,-4.1631156,45161,Polán,Polán,Castile-La Mancha,Spain
codere,S J LBO Plasencia,"VIRGEN DEL PUERTO 10, Plasencia",40.04209549999999,-6.0838065,10600,Plasencia,Plasencia,Extremadura,Spain
codere,S J LBO ROSALES,"OUTEIRO, 412, Coruña",43.3623436,-8.4115401,15005,A Coruña,A Coruña,Galicia,Spain
codere,S J LBO SPORT BAR AND APUESTAS MENTRIDA,"SOLANA, 19",40.2394809,-4.1936206,45930,Méntrida,Méntrida,Castile-La Mancha,Spain
codere,S J LBO SPORT BAR AND APUESTAS SANTA OLALLA,"Donantes de Sangre, 3",40.02370880000001,-4.4297848,45530,Santa Olalla,Santa Olalla,Castile-La Mancha,Spain
codere,S J LBO SPORT BAR AND APUESTAS YUNCOS,"DOCTOR FLEMING, 21",40.0895941,-3.874903,45210,Yuncos,Yuncos,Castile-La Mancha,Spain
codere,S J LBO TRUJILLO LUENGO,"NUESTRA SEÑORA DEL ROSARIO, 18, Navahermosa",39.6355945,-4.4722512,45150,Navahermosa,Navahermosa,Castile-La Mancha,Spain
codere,S J LBO VIA CARPETANA,"CARPETANA, 324, Madrid",40.39270399999999,-3.7409937,28025,Madrid,Madrid,Community of Madrid,Spain
codere,S J La Fortuna,"Pizarro, 9",10.4678335,-84.64268059999999,,La Fortuna,,Alajuela Province,Costa Rica
codere,S J Lbo Avenida De La Peseta,"DE LA PESETA, 94, Madrid",40.3620859,-3.7495053,28054,Madrid,Madrid,Community of Madrid,Spain
codere,S J Lbo Carlos Martin Alvarez,"Carlos Martin Alvarez, 5, Madrid",40.3912509,-3.661856799999999,28018,Madrid,Madrid,Community of Madrid,Spain
codere,S J Lbo Madrid Juegos General Ricardos,"General Ricardos, 157, Madrid",40.3880394,-3.7322657,28025,Madrid,Madrid,Community of Madrid,Spain
codere,S J Lbo Madrid Juegos Pedro Laborde,"Pedro Laborde, 14, Madrid",40.3890605,-3.647868599999999,28018,Madrid,Madrid,Community of Madrid,Spain
codere,S J Lbo Montehermoso,"España, 5, Montehermoso",40.0877862,-6.3505273,10810,Montehermoso,Montehermoso,Extremadura,Spain
codere,S J NEVADA ALCALA DE HENARES,"MARQUES ALONSO MARTINEZ, 4",38.8026097,-116.419389,,,,Nevada,United States
codere,S J NEVADA ALCORCON IGLESIA,"De La Iglesia, 7, Alcorcon",38.8026097,-116.419389,,,,Nevada,United States
codere,S J NEVADA FUENLABRADA CENTRO,"Avenida de las Regiones 10, Fuenlabrada",38.8026097,-116.419389,,,,Nevada,United States
codere,S J Nevada Quintana,"Calle de Alcalá esq. Virgen Del Sagrario, 341, Madrid",38.8026097,-116.419389,,,,Nevada,United States
codere,S J Royal Crown Coslada,"Plaza COMUNEROS  locales 1.3, 2, Coslada",40.4246465,-3.5680836,28821,Coslada,Coslada,Community of Madrid,Spain
codere,S J Royal Crown Pan y Toros,"Pan Y Toros, 3",,,,,,,
codere,S J SALA TEATINOS,"FRANZ KAFKA, 27, Malaga",36.71575,-4.46601,29010,Málaga,Málaga,Andalusia,Spain
codere,S J SALON ALAMEDA,"TRINIDAD GRUND, 6, Malaga",36.7173645,-4.4215447,29001,Málaga,Málaga,Andalusia,Spain
codere,S J SALON AVENIDA DE ANDALUCIA,"DE ANDALUCIA, 14, Jaen",37.7774536,-3.7932599,23005,Jaén,Jaén,Andalusia,Spain
codere,S J SE ACABO EL PESCAO,"VALLADOLID, 2, Fuengirola",36.544148,-4.624943900000001,29640,Fuengirola,Fuengirola,Andalusia,Spain
codere,S J TREBOL,"BRAVO MURILLO, 137, Madrid",40.450329,-3.7036582,28020,Madrid,Madrid,Community of Madrid,Spain
codere,S J VEGAS,"Marques De Viana, 27 ESQ. HIERBABUENA 45, HIERBABUENA",36.1699412,-115.1398296,89101,Las Vegas,,Nevada,United States
codere,S J VEGAS CENTRO ALCORCON LAS,"VIZCAYA, 8, Alcorcon",36.1699412,-115.1398296,89101,Las Vegas,,Nevada,United States
codere,S J VEGAS SAN SEBASTIAN DE LOS REYES,"DE MURCIA, 5",36.1699412,-115.1398296,89101,Las Vegas,,Nevada,United States
codere,S J VEGAS VALDEMORO,"Vicente Aleixandre, 15",36.1699412,-115.1398296,89101,Las Vegas,,Nevada,United States
codere,S JOKER ALMERIA,"GRANADA, 145",36.834047,-2.4637136,04001,Almería,Almería,Andalusia,Spain
codere,SALA ALCOBENDAS,"Calle MARQUES DE VALDAVIA, 55, Alcobendas",40.5437132,-3.6413274,28100,Alcobendas,Alcobendas,Community of Madrid,Spain
codere,SALON 17,"MIRANDA DO DOURO, 1, Aranda De Duero",41.6695784,-3.6857921,09400,Aranda de Duero,Aranda de Duero,Castile and León,Spain
codere,SALON 2002,"CALLE SEDELLA, 3, Mijas",36.5009911,-4.6851262,29649,La Cala de Mijas,Mijas,Andalusia,Spain
codere,SALON ADMIRAL,"FEDERICO GARCIA LORCA, 1, Velilla San Antonio",40.37391849999999,-3.4898568,28891,Velilla de San Antonio,Velilla de San Antonio,Community of Madrid,Spain
codere,SALON ADMIRAL ALHAURIN,"ALAMOS, 49, Alhaurin De La Torre",36.660989,-4.562875,29130,Alhaurín de la Torre,Alhaurín de la Torre,Andalusia,Spain
codere,SALON ADMIRAL FRANCOS RODRIGUEZ,"Calle FRANCOS RODRIGUEZ, 15, Madrid",40.4561543,-3.704840299999999,28039,Madrid,Madrid,Community of Madrid,Spain
codere,SALON ADMIRAL JESUS RESCATADO,"JESUS RESCATADO, 32, Cordoba",37.8905891,-4.760248,14007,Córdoba,Córdoba,Andalusia,Spain
codere,SALON ALCALA LA REAL,"GUARDIA AVILA GARCIA, 6",37.45522,-3.92285,23680,Alcalá la Real,Alcalá la Real,Andalusia,Spain
codere,SALON ANABEL,"BLAS INFANTE, 15, Benalmadena",36.5976892,-4.5347652,29631,Benalmádena,Benalmádena,Andalusia,Spain
codere,SALON ANDALUCIA,"DE ANDALUCIA, 23, Punta Umbria",37.18504250000001,-6.964359600000001,21100,Punta Umbría,Punta Umbría,Andalusia,Spain
codere,SALON ARCHIDONA,"NUEVA, 57, Archidona",37.0946503,-4.3884892,29300,Archidona,Archidona,Andalusia,Spain
codere,SALON ARTESANOS,"ARTESANOS, 9, Huelva",37.2773551,-6.938058499999999,21005,Huelva,Huelva,Andalusia,Spain
codere,SALON AVENIDA DE ESPAÑA,"ESPAÑA, 43, Albacete",38.9823961,-1.8543345,02006,Albacete,Albacete,Castile-La Mancha,Spain
codere,SALON AZAHAR,"JOSE MARTORELL, C.C. ZOCO LOCAL 7.31-7.32, Cordoba",37.8806821,-4.7988303,14005,Córdoba,Córdoba,Andalusia,Spain
codere,SALON AZNALCOLLAR,"DE ANDALUCIA, 20, Aznalcollar",37.5199527,-6.2682197,41870,Aznalcóllar,Aznalcóllar,Andalusia,Spain
codere,SALON BAEZA,"ALCALDE PUCHE PARDO, 47, Baeza",37.9972706,-3.4587646,23440,Baeza,Baeza,Andalusia,Spain
codere,SALON BAUTISTA,"ISLA CRISTINA, 9, Huelva",37.2575635,-6.9341358,21007,Huelva,Huelva,Andalusia,Spain
codere,SALON BOLICHES,"LOS BOLICHES, 19, Fuengirola",36.5522739,-4.6151876,29640,Fuengirola,Fuengirola,Andalusia,Spain
codere,SALON BORMUJOS,"Av. Del Aljarafe, 68, Bormujos",37.3814808,-6.0682652,41930,Bormujos,Bormujos,Andalusia,Spain
codere,SALON CAMAS,"SANTA MARIA DE GRACIA, 23, Camas",37.4038678,-6.0355471,41900,Camas,Camas,Andalusia,Spain
codere,SALON CANILLAS,"CANILLAS, 60, Madrid",40.46323400000001,-3.650561,28043,Madrid,Madrid,Community of Madrid,Spain
codere,SALON CANOE,"Paseo CASTELLANA, 93, Madrid",40.450951,-3.691649,28046,Madrid,Madrid,Community of Madrid,Spain
codere,SALON CAPICUA,"Calle DOCTOR FLEMING, 15, Tavernes de la Valldigna",39.0719922,-0.2653043,46760,Tavernes de la Valldigna,Tavernes de la Valldigna,Valencian Community,Spain
codere,SALON CASINO PARK ESTACION,"Avenida ESPAÑA, 4, Logroño",42.4627195,-2.4449852,26003,Logroño,Logroño,La Rioja,Spain
codere,SALON CASINO PARK PADRE CLARET,"Calle PADRE CLARET, 1, Logroño",42.4637237,-2.4335395,26004,Logroño,Logroño,La Rioja,Spain
codere,SALON CASINO PARK PEDREGALES ,"Estambrera, 32, Logroño",42.4557303,-2.4352859,26006,Logroño,Logroño,La Rioja,Spain
codere,SALON CASINO PARK SANFER,"Parque SAN ADRIAN, 2, Logroño",42.45667599999999,-2.4605544,26007,Logroño,Logroño,La Rioja,Spain
codere,SALON CERVANTES,"DEL GENIL, 1, Ecija",37.5374584,-5.0727196,41400,Écija,Écija,Andalusia,Spain
codere,SALON CHAPARRAL,"FERIA, 7, Almonte",37.2599434,-6.514580899999999,21730,Almonte,Almonte,Andalusia,Spain
codere,SALON CIRCUS,"CONCORDIA, 2, Albacete",38.9962408,-1.8542206,02001,Albacete,Albacete,Castile-La Mancha,Spain
codere,SALON COCA DE LA PIÑERA,"COCA DE LA PIÑERA, 4, Jaen",37.7795941,-3.784905699999999,23009,Jaén,Jaén,Andalusia,Spain
codere,SALON COFFE AND PLAY DOS HERMANAS,"Av. De andalucia, Esq. Cl. Aragon 210",37.2538294,-5.933840399999999,41700,,Dos Hermanas,Andalusia,Spain
codere,SALON COFFEE AND PLAY SEVILLA,"LUIS MONTOTO, 132-134, Sevilla",37.3872643,-5.969992800000001,41005,Seville,Seville,Andalusia,Spain
codere,SALON COIN,"MAESTRO SERRANO, 2, Coin",36.6599799,-4.754759099999999,29100,Coín,Coín,Andalusia,Spain
codere,SALON DE JUEGO NEVADA MORATALAZ,"MANUEL MACHADO, 8",38.8026097,-116.419389,,,,Nevada,United States
codere,SALON DE JUEGO NEYMAR,"JOAQUIN TURINA, 115, Cuenca",40.0628381,-2.128414,16004,Cuenca,Cuenca,Castile-La Mancha,Spain
codere,SALON DE JUEGO SAN FRANCISCO,"ANDALUCIA, 121, Torre Del Mar",37.7749295,-122.4194155,94103,San Francisco,,California,United States
codere,SALON DE JUEGO SURPLAY DREAMS,"VERACRUZ, 18, Mostoles",40.3179367,-3.8560882,28936,Móstoles,Móstoles,Community of Madrid,Spain
codere,SALON DE JUEGOS APOLO,"Calle CIUDADES, 1, Parla",40.2406389,-3.768851599999999,28982,Parla,Parla,Community of Madrid,Spain
codere,SALON DE JUEGOS ARLAJ,"Calle CONSTITUCION, 24, Guadalajara",20.6410779,-103.3100792,45500,Tlaquepaque,,Jalisco,Mexico
codere,SALON DE JUEGOS ATLANTIS,"SAN MIGUEL, 4, Torremolinos",36.6240046,-4.4997976,29620,Torremolinos,Torremolinos,Andalusia,Spain
codere,SALON DE JUEGOS CASA VIQUEZ,"BEATO DIEGO DE CADIZ, 1, Cadiz",36.5339212,-6.296092499999999,11004,Cádiz,Cádiz,Andalusia,Spain
codere,SALON DE JUEGOS EL EMIR,"CMNO. DE LOS SASTRES, 2, Cordoba",37.8815613,-4.7872425,14004,Córdoba,Córdoba,Andalusia,Spain
codere,SALON DE JUEGOS LAS VEGAS,"DON BOSCO, 8, D Bosco-Madrid",36.1699412,-115.1398296,89101,Las Vegas,,Nevada,United States
codere,SALON DE JUEGOS LAS VEGAS,"EUGENIO CAXES, 14, Eugenio Caxes-Madrid",40.3917597,-3.702968899999999,28026,Madrid,Madrid,Community of Madrid,Spain
codere,SALON DE JUEGOS LAS VEGAS VISTA ALEGRE,"MATILDE HERNANDEZ, 101, Madrid",40.3860938,-3.7377711,28025,Madrid,Madrid,Community of Madrid,Spain
codere,SALON DE JUEGOS LE TRAM,"CIUDAD DE SANTANDER, 11, Cadiz",36.5270612,-6.2885962,11006,Cádiz,Cádiz,Andalusia,Spain
codere,SALON DE JUEGOS LE TRAM,"MARITIMO, 8, Marbella",36.5072009,-4.8880662,29602,Marbella,Marbella,Andalusia,Spain
codere,SALON DE JUEGOS ROYAL CROWN,"DELICIAS, 87, Madrid",40.3361031,-3.7556635,28915,Leganés,Leganés,Community of Madrid,Spain
codere,SALON DE JUEGOS SAMARAS,"JAIME I EL CONQUISTADOR, 2, Linares",38.0903041,-3.6285576,23700,Linares,Linares,Andalusia,Spain
codere,SALON DE JUEGOS SAMARAS II,"DE ANDALUCIA ESQ. VIRGEN DE GUADALUPE, 1, Ubeda",38.0151473,-3.3725583,23400,Úbeda,Úbeda,Andalusia,Spain
codere,SALON DE JUEGOS UNIBOX,"AVENIDA DE VELÁZQUEZ, 86, Malaga",36.6930329,-4.454808,29004,Málaga,Málaga,Andalusia,Spain
codere,SALON DEL SUR,"ARCOS DE LA FRONTERA, Jerez De La Frontera",36.7511927,-5.813115799999999,11630,Arcos de la Frontera,Arcos de la Frontera,Andalusia,Spain
codere,SALON DEL SUR 30,"AYALA, 3, Chiclana De La Frontera",36.4200398,-6.1506481,11130,Chiclana de la Frontera,Chiclana de la Frontera,Andalusia,Spain
codere,SALON DUQUE,"DUQUE DE RIVAS, 10, Malaga",36.7274394,-4.4238455,29013,Málaga,Málaga,Andalusia,Spain
codere,SALON EL ARCO,"ALFONSO XII, 2, Osuna",37.2417881,-5.1074692,41640,Osuna,Osuna,Andalusia,Spain
codere,SALON EL PARQUE,"CALAÑAS, 21, Valverde del Camino",37.6548016,-6.8793335,21300,Calañas,Calañas,Andalusia,Spain
codere,SALON EL PUENTE,"GILES Y RUBIO, 16, Ecija",37.5431369,-5.074273,41400,Écija,Écija,Andalusia,Spain
codere,SALON ESTACION LA,"AV. ÁLVAREZ GUERRA, 9, Alcazar De San Juan",39.3950584,-3.2045376,13600,Alcázar de San Juan,Alcázar de San Juan,Castile-La Mancha,Spain
codere,SALON ESTE,"EMILIO LEMOS, Sevilla",37.403443,-5.918358,41019,Seville,Seville,Andalusia,Spain
codere,SALON FERRARA,"CARR. DE ALMERIA, 2, Torrox",36.7350192,-3.9774883,29770,Los Llanos,Torrox,Andalusia,Spain
codere,SALON FLAMINGO LA ALMUNIA,"RAMON Y CAJAL, 1, Almunia De Doña Godina",41.479119,-1.375126,50100,La Almunia de Doña Godina,La Almunia de Doña Godina,Aragon,Spain
codere,SALON FORUM CENTER,"CLAUDIO MARCELO, 6, Cordoba",37.8846842,-4.7774014,14002,Córdoba,Córdoba,Andalusia,Spain
codere,SALON FT ALBERIQUE,"LA GLORIETA, 6, Alberic",39.1171448,-0.5215364,46260,Alberic,Alberic,Valencian Community,Spain
codere,SALON FT EL PALO,"ALMERÍA, 29, Malaga",36.7207087,-4.355955,29018,Málaga,Málaga,Andalusia,Spain
codere,SALON FUENCARRAL,"ISLA PARAGUA, 16, Madrid",40.4938116,-3.6870114,28034,Madrid,Madrid,Community of Madrid,Spain
codere,SALON FUENGIROLA GANA,"COIN, 7, Fuengirola",36.538509,-4.6264762,29640,Fuengirola,Fuengirola,Andalusia,Spain
codere,SALON GARMAR,"BALNEARIO, 37",,,,,,,
codere,SALON GONSHA,"TERESA DE CALCUTA, 20, Cordoba",37.8949511,-4.797708699999999,14011,Córdoba,Córdoba,Andalusia,Spain
codere,SALON HEROES DE SOSTOA,"HEROES DE SOSTOA, 188, Malaga",36.7018846,-4.443391399999999,29003,Málaga,Málaga,Andalusia,Spain
codere,SALON HYTASA,"DE HYTASA, 12, Sevilla",37.3691167,-5.9575409,41006,Seville,Seville,Andalusia,Spain
codere,SALON JABUGO,"FEDERICO MOLINA, 82, Huelva",37.2602037,-6.9311378,21007,Huelva,Huelva,Andalusia,Spain
codere,SALON JAVIER,"CASA BLANCA, 2, Lepe",,,,,,,
codere,SALON JOKER,"AL-ANDALUS, 44, Pilas",37.2986982,-6.2979309,41840,Pilas,Pilas,Andalusia,Spain
codere,SALON JOKER,"DOCTOR FLEMING, 1, Utrera",37.1763881,-5.777422899999999,41710,Utrera,Utrera,Andalusia,Spain
codere,SALON JOKER HUERCALOVERA 340,"NACIONAL, 340 - Huércal-Overa",37.3921719,-1.9396945,04600,Huércal-Overa,Huércal-Overa,Andalusia,Spain
codere,SALON JOKER JAEN ANDALUCIA,"ANDALUCIA, 79, Jaen",37.7749882,-3.7856194,23008,Jaén,Jaén,Andalusia,Spain
codere,SALON JOKER MALAGA CUARTELES,"CUARTELES, 46",36.7132997,-4.428808399999999,29002,Málaga,Málaga,Andalusia,Spain
codere,SALON JOKER MALAGA GROSS,"RAFAELA, 45 ESQUINA CALLE EUGENIO GROSS",36.7242659,-4.4356959,29010,Málaga,Málaga,Andalusia,Spain
codere,SALON JOKER MALAGA MARTINEZDELAROSA,"MARTINEZ DE LA ROSA, 177",36.72808240000001,-4.443204,29010,Málaga,Málaga,Andalusia,Spain
codere,SALON JOKER NERJA CASTILLA,"CASTILLA PEREZ, 1",36.7475466,-3.8792817,29780,Nerja,Nerja,Andalusia,Spain
codere,SALON JOKER RINCON PLAZA,"Calle Frigiliana, 9, Rincon De La Victoria",18.3401514,-67.24994590000001,00677,Rincon,,Rincón,Puerto Rico
codere,SALON JOKER TORREDELMAR CIPRIANO,"DON CIPRIANO MALDONADO JIMENEZ, 80",36.7443087,-4.0978442,,Torre del Mar,Vélez-Málaga,Andalusia,Spain
codere,SALON JUBELMAR II,"Sertorio, 15, Consuegra",39.4903746,-3.682608,45700,,Consuegra,Castile-La Mancha,Spain
codere,SALON JUBELMAR III,"POCICO, 3, Membrilla",38.9746933,-3.3385766,13230,,Membrilla,Castile-La Mancha,Spain
codere,SALON LA CALZADA,"AVENIDA DE BARCELONA, 37, Malaga",36.7248977,-4.4314061,29009,Málaga,Málaga,Andalusia,Spain
codere,SALON LA CEPA,"JOSE FARIÑA, 7, Huelva",37.2591269,-6.9343678,21006,Huelva,Huelva,Andalusia,Spain
codere,SALON LA LONJA,"LA LONJA, 49, Mancha Real",37.788973,-3.6126397,23100,Mancha Real,Mancha Real,Andalusia,Spain
codere,SALON LA PLAZA,"Plaza LOS MANANTIALES, 1, Guadalajara",40.6325333,-3.1905899,19004,Guadalajara,Guadalajara,Castile-La Mancha,Spain
codere,SALON LA VIA,"ALCALDE AMERICO SANTOS, 14, Valverde del Camino",37.5753188,-6.7557436,21600,Valverde del Camino,Valverde del Camino,Andalusia,Spain
codere,SALON LAS AMERICAS,"ANTONIO MACHADO, 1, Huelva",37.2639932,-6.9311848,21006,Huelva,Huelva,Andalusia,Spain
codere,SALON LAS CABEZAS,"SAN NICOLAS, 3, Cabezas De San Juan",36.9917914,-5.940001500000001,41730,Las Cabezas de San Juan,Las Cabezas de San Juan,Andalusia,Spain
codere,SALON LAS COLONIAS,"CRISTOBAL COLON, 74, Huelva",37.2697533,-6.951095199999999,21002,Huelva,Huelva,Andalusia,Spain
codere,SALON LAS VEGAS,"CALLE REAL, 67, San Fernando",36.1140715,-115.3087585,89147,Las Vegas,,Nevada,United States
codere,SALON LAS VEGAS ALCORCON,"Calle PORTO CRISTO post., 13, Alcorcón",36.1699412,-115.1398296,89101,Las Vegas,,Nevada,United States
codere,SALON LAS VEGAS CAMPAMENTO,"SESEÑA, 87, Madrid",40.3955412,-3.766595,28024,Madrid,Madrid,Community of Madrid,Spain
codere,SALON LAS VEGAS EL ALAMO,"CONSTITUCION, 15",36.1290754,-115.1652896,89109,Las Vegas,,Nevada,United States
codere,SALON LAS VEGAS JOSE DEL HIERRO,"JOSE DEL HIERRO 39, Madrid",40.44017059999999,-3.643513,28027,Madrid,Madrid,Community of Madrid,Spain
codere,SALON LAS VEGAS MOSTOLES,"Calle SANTANDER, 17, Móstoles",40.3205334,-3.8663066,28938,Móstoles,Móstoles,Community of Madrid,Spain
codere,SALON LAS VEGAS VI,"NICETO DE ALCALA ZAMORA Y TORRES, 14, Priego de Cordoba",36.1699412,-115.1398296,89101,Las Vegas,,Nevada,United States
codere,SALON LATINO 40,"AV. RAMON Y CAJAL, Dos Hermanas",37.291739,-5.9244695,41704,Dos Hermanas,Dos Hermanas,Andalusia,Spain
codere,SALON LEGANES,"Avenida DOCTOR MARTIN VEGUE JAUDENES, 6, Leganés",40.3291621,-3.761499799999999,28912,Leganés,Leganés,Community of Madrid,Spain
codere,SALON LOCOMATIC,"REYES CATOLICOS, 76, Villarrobledo",39.2674757,-2.5967665,02600,Villarrobledo,Villarrobledo,Castile-La Mancha,Spain
codere,SALON LOCOMATIC MIGUELTURRA,"RAMON Y CAJAL, 6",38.9653445,-3.889577099999999,13170,Miguelturra,Miguelturra,Castile-La Mancha,Spain
codere,SALON LOCOMATIC TOMELLOSO,"ESPAÑA, 13",39.1582611,-3.0212324,13700,Tomelloso,Tomelloso,Castile-La Mancha,Spain
codere,SALON LOS LEONES CHICOS,"DUQUE DE RIVAS, 11, Malaga",36.7269336,-4.423750399999999,29013,Málaga,Málaga,Andalusia,Spain
codere,SALON MAGIC II,"INGENIERO JUAN DE LA CIERVA P. I. LA TORRECILLA, Cordoba",37.8575251,-4.789522799999999,14013,,Córdoba,Andalusia,Spain
codere,SALON MAJESTIC VICAR,"BULEVAR CIUDAD DE VICAR, 928, Cabañuelas",36.80296939999999,-2.634464,04738,Las Cabañuelas,Vícar,Andalusia,Spain
codere,SALON MALAGA,"MALAGA ESQ. AV. SAN ANTONIO, Huelva",36.7212737,-4.4213988,29015,Málaga,Málaga,Andalusia,Spain
codere,SALON MEDITERRANEA DE SISTEMAS,"EMILIO THUILLER, 50, Malaga",36.7445437,-4.4219248,29014,Málaga,Málaga,Andalusia,Spain
codere,SALON MENDIVIL,"MENDIVIL, 8, Malaga",36.7128796,-4.432258099999999,29006,Málaga,Málaga,Andalusia,Spain
codere,SALON MERCURIO,"JAEN, 63, Almeria",36.8422169,-2.4561651,04005,Almería,Almería,Andalusia,Spain
codere,SALON MERCURIO ARROYO DE LA MIEL,"GAMONAL, 7",36.5966136,-4.530939,29630,Benalmádena,Benalmádena,Andalusia,Spain
codere,SALON MERCURIO JUAN BOSCO,"JUAN BOSCO, 6-8, Almeria",36.8424645,-2.4567368,04005,Almería,Almería,Andalusia,Spain
codere,SALON MERCURIO PLAZA DE LA LUZ,"PLAZA DE LA LUZ, 9, Malaga",36.6958518,-4.453970099999999,29004,Málaga,Málaga,Andalusia,Spain
codere,SALON MILANO,"Avenida DESIDERIO RODRIGUEZ, 134, Torrevieja",37.9670008,-0.6998122,03185,Torrevieja,Torrevieja,Valencian Community,Spain
codere,SALON MILLENNIAL BARAJAS,"DE LAS ALAS 0023, Madrid",40.4731597,-3.5826336,28042,Madrid,Madrid,Community of Madrid,Spain
codere,SALON MORALEJA,"PUREZA CANELO, 61, Moraleja",40.067675,-6.655308,10840,Moraleja,Moraleja,Extremadura,Spain
codere,SALON MULTIJOKER,"PADRE TORRERO, 48, Belalcazar",38.57369,-5.16474,14280,Belalcázar,Belalcázar,Andalusia,Spain
codere,SALON MURGIS,"CARRERA BAJA, 1, La Rambla",37.6102986,-4.7370098,14540,La Rambla,La Rambla,Andalusia,Spain
codere,SALON NEVADA ALCOBENDAS,"SAN ANTONIO, 2 acceso Marquesa Viuda De Aldama",40.5378862,-3.6365131,28100,Alcobendas,Alcobendas,Community of Madrid,Spain
codere,SALON NEVADA FRANCISCO SILVELA,"FRANCISCO SILVELA, 54, Madri",40.4401636,-3.6799564,28002,Madrid,Madrid,Community of Madrid,Spain
codere,SALON NEVADA LA VAGUADA,"GINZO DE LIMIA, 39, Madrid",38.8026097,-116.419389,,,,Nevada,United States
codere,SALON NEVADA OCA,"OCA, 70, Madrid",40.3893804,-3.7378019,28025,Madrid,Madrid,Community of Madrid,Spain
codere,SALON NEVADA PASEO EXTREMADURA,"EXTREMADURA, 105, Madrid",40.4112628,-3.7343255,28011,Madrid,Madrid,Community of Madrid,Spain
codere,SALON NEVADA PRINCIPE,"PRINCIPE, 15, Madrid",40.4466704,-3.7046417,28003,Madrid,Madrid,Community of Madrid,Spain
codere,SALON ORTIZ,"PUERTA DE TEBA, 19, Campillos",37.0458536,-4.8624282,29320,Campillos,Campillos,Andalusia,Spain
codere,SALON P CODERE PALACIOS,"Paseo ALBERTO PALACIOS, 7, Madrid",40.346391,-3.709923,28021,Madrid,Madrid,Community of Madrid,Spain
codere,SALON P CODERE PAN Y TOROS 2,"Calle PAN Y TOROS, 9, Madrid",40.360294,-3.6943148,28041,Madrid,Madrid,Community of Madrid,Spain
codere,SALON P CORAL,"CORAL, S/N, Port D Alcudia",39.8438608,3.1297239,07400,Port d'Alcúdia,Alcúdia,Balearic Islands,Spain
codere,SALON P HIPICA,"HIPICA, 3, Valladolid",39.362856,-76.552052,21214,Baltimore,,Maryland,United States
codere,SALON P MILLENNIAL GUADARRAMA,"ALFONSO SENRA, 35",40.6730984,-4.0906723,28440,Guadarrama,Guadarrama,Community of Madrid,Spain
codere,SALON P MONEY MONEY,"MARIA GUERRERO, 100, Linea Concepcion",36.1732068,-5.3482424,11300,La Línea de la Concepción,La Línea de la Concepción,Andalusia,Spain
codere,SALON P OLIVENZA,"AVENIDA NICARAGUA, S/N, Olivenza",38.6892023,-7.093367199999999,06100,Olivenza,Olivenza,Extremadura,Spain
codere,SALON P POLA DE SIERO,"ALCALDE PARRONDO, 6, Pola De Siero",43.391389,-5.661885,33510,Pola de Siero,Siero,Asturias,Spain
codere,SALON P PORTO CRISTO,"DELS PINS, 1, Porto Cristo",39.5445498,3.3377151,07680,Porto Cristo,Manacor,Balearic Islands,Spain
codere,SALON P PUERTO POLLENÇA,"CARRER JOAN XXIII, 4, Port De Pollença",39.9056723,3.0788205,07470,Port de Pollença,Pollença,Balearic Islands,Spain
codere,SALON P REPUBLICA ARGENTINA SEVILLA,"REPUBLICA ARGENTINA, 31",37.37696990000001,-6.002841699999999,41011,Seville,Seville,Andalusia,Spain
codere,SALON P ROOM DELICIAS,"Paseo DELICIAS, DE LAS, 47, Madrid",40.3986058,-3.6927795,28045,Madrid,Madrid,Community of Madrid,Spain
codere,SALON P ROOM LIBERTAD,"LIBERTAD, 53, Mostoles",40.3241907,-3.8523417,28936,Móstoles,Móstoles,Community of Madrid,Spain
codere,SALON P ROOM LORANCA,"ALEGRIA, 4, Fuenlabrada",40.2968828,-3.838554499999999,28942,Fuenlabrada,Fuenlabrada,Community of Madrid,Spain
codere,SALON P ROOM LUCERO,"CEBREROS, 28",39.362856,-76.552052,21214,Baltimore,,Maryland,United States
codere,SALON P ROOM MOSTOLES,"Calle GOYA, 7, Móstoles",40.3281134,-3.8635021,28932,Móstoles,Móstoles,Community of Madrid,Spain
codere,SALON P ROOM PALACIOS 1,"Calle ALBERTO PALACIOS, 24, Madrid",40.3446977,-3.7126916,28021,Madrid,Madrid,Community of Madrid,Spain
codere,SALON P ROOM TORREJON 1,"Calle HOSPITAL, 6, Torrejón de Ardoz",40.451319,-3.470775,28850,Torrejón de Ardoz,Torrejón de Ardoz,Community of Madrid,Spain
codere,SALON P ROOM TORREJON 2,"Calle SORIA, 1, Torrejón de Ardoz",40.4615328,-3.4829237,28850,Torrejón de Ardoz,Torrejón de Ardoz,Community of Madrid,Spain
codere,SALON P ROOM USERA,"Calle MARCELO USERA, 85, Madrid",40.38558889999999,-3.7065275,28026,Madrid,Madrid,Community of Madrid,Spain
codere,SALON PALOMAREJOS,"Calle CANARIAS, 6, Toledo",39.8732441,-4.0356171,45005,Toledo,Toledo,Castile-La Mancha,Spain
codere,SALON PARQUE EUROPA,"Av. de Europa, 2, Pinto",40.44694339999999,-3.4557634,28850,Torrejón de Ardoz,Torrejón de Ardoz,Community of Madrid,Spain
codere,SALON PICKMAN,"MARQUES PICKMAN, 69, Sevilla",37.38162,-5.963515,41005,Seville,Seville,Andalusia,Spain
codere,SALON PLUS ULTRA,"PLUS ULTRA, 3, Huelva",37.2575417,-6.953825399999999,21001,Huelva,Huelva,Andalusia,Spain
codere,SALON PONDEROSA,"DIAMANTINO GARCIA, 21, Los Corrales",37.09753,-4.982679999999999,41657,Los Corrales,Los Corrales,Andalusia,Spain
codere,SALON PREMIUM,"ESPELUY POL. IND. LOS OLIVARES, 14, Jaen",37.798402,-3.782245,23009,Jaén,Jaén,Andalusia,Spain
codere,SALON RAMON Y CAJAL,"RAMON Y CAJAL, 24, Sevilla",37.3761491,-5.9719906,41005,Seville,Seville,Andalusia,Spain
codere,SALON REAL,"Calle REAL DE ARGANDA, 9, Madrid",40.3796846,-3.6204842,28031,Madrid,Madrid,Community of Madrid,Spain
codere,SALON REALEJO,"REALEJO, 6, Cordoba",37.8859608,-4.7723441,14002,Córdoba,Córdoba,Andalusia,Spain
codere,SALON REPUBLICA ARGENTINA,"REPUBLICA ARGENTINA, 12, Cordoba",37.8814972,-4.7885842,14004,Córdoba,Córdoba,Andalusia,Spain
codere,SALON RINCON DE LA VICTORIA,"VIRGEN DE LA CANDELARIA, 1, Rincon de la Victoria",36.7145256,-4.2796457,29730,Rincón de la Victoria,Rincón de la Victoria,Andalusia,Spain
codere,SALON RIVER,"Calle Toledo 6, Arges",39.8073656,-4.057263,45122,Argés,Argés,Castile-La Mancha,Spain
codere,SALON ROULETTE,"DOCTOR LOPEZ CANTARERO BALLESTEROS, 6, Maracena",37.2088812,-3.6316454,18200,Maracena,Maracena,Andalusia,Spain
codere,SALON ROYAL CROWN FUENLABRADA 2,"PORTUGAL, 33",39.39987199999999,-8.224454,2205,Abrantes,,Santarém District,Portugal
codere,SALON ROYAL CROWN SANTA ENGRACIA,"Calle PONCE DE LEON, 2, Madrid",33.7721756,-84.3788266,30308,Atlanta,,Georgia,United States
codere,SALON SEDAVI,"ALBUFERA, 61, Sedavi",39.4232254,-0.3868649,46910,Sedaví,Sedaví,Valencian Community,Spain
codere,SALON SEPTIMO ARTE I,"JOSE FERNANDEZ VEGA, 4, Brenes",37.5476666,-5.8718941,41310,Brenes,Brenes,Andalusia,Spain
codere,SALON SEPTIMO ARTE II,"BARRIADA NUESTRA SEÑORA DEL ROSARIO, 13, Brenes",37.5462247,-5.876114800000001,41310,Brenes,Brenes,Andalusia,Spain
codere,SALON SUR 17,"SAN RAMON ESQ. SANTA CECILIA, Churriana De La Vega",37.1448634,-3.6424241,18194,Churriana de la Vega,Churriana de la Vega,Andalusia,Spain
codere,SALON TARTESSOS,"ANGEL SERRADILLA, 28, Huelva",37.2556807,-6.9308561,21007,Huelva,Huelva,Andalusia,Spain
codere,SALON TETUAN,"JOSE SUAREZ, 7, San Fernando",35.5888995,-5.3625516,,Tetouan,,Tangier-Tétouan-Al Hoceima,Morocco
codere,SALON TIKI TAKA ALCANTARILLA,"MURCIA, 60",37.9730748,-1.2011051,30820,Region of Murcia,Alcantarilla,Region of Murcia,Spain
codere,SALON TIKI TAKA SPORT CAFE I,"MARIA MARIN, 69, Albacete",38.999706,-1.862957,02005,Albacete,Albacete,Castile-La Mancha,Spain
codere,SALON TIKI TAKA SPORT CAFE II,"ARQUITECTO JULIO CARRILERO, 14, Albacete",38.999706,-1.862957,02005,Albacete,Albacete,Castile-La Mancha,Spain
codere,SALON TIKI TAKA SPORT CAFE III,"Calle de Hellín 49, Albacete",38.999706,-1.862957,02005,Albacete,Albacete,Castile-La Mancha,Spain
codere,SALON TINO,"PASCUAL MARTINEZ, 5, Huelva",37.2619859,-6.9398858,21006,Huelva,Huelva,Andalusia,Spain
codere,SALON TINO LOS ROSALES,"AVDA. DE LAS FUERZAS ARMADAS, Huelva",37.2620356,-6.927851,21007,Huelva,Huelva,Andalusia,Spain
codere,SALON TOLEDO,"ALCALDE ANTONIO SEGOVIA, 5, Huelva",37.2660478,-6.939814699999999,21004,Huelva,Huelva,Andalusia,Spain
codere,SALON TORRECILLA,"DE LA TORRECILLA, Córdoba",37.8575251,-4.789522799999999,14013,,Córdoba,Andalusia,Spain
codere,SALON TORRELODONES,"CAMINO DE VALLADOLID, 15",40.5757279,-3.930524299999999,28250,Torrelodones,Torrelodones,Community of Madrid,Spain
codere,SALON TORREMOLINOS,"DE LOS MANANTIALES, 14, Torremolinos",36.6182042,-4.5098012,29620,Torremolinos,Torremolinos,Andalusia,Spain
codere,SALON TREBOL,"DE LA VIÑUELA 5, Cordoba",37.8903492,-4.763102,14010,Córdoba,Córdoba,Andalusia,Spain
codere,SALON TREBOL,"PANAMA ESQ. REPUBLICA DOMINICANA,, Palma Del Rio",8.537981,-80.782127,,,,Coclé Province,Panama
codere,SALON TREBOL CAMAS,"FORMENTOR, 2, Camas",37.401173,-6.0321884,41900,Camas,Camas,Andalusia,Spain
codere,SALON V CENTENARIO I,"COMANDANTE FRANCO, 11, Palos de la Frontera",37.2232499,-6.890867999999999,21810,Zona de los Príncipes,Palos de la Frontera,Andalusia,Spain
codere,SALON V CENTENARIO II,"JUAN DE LA COSA, 13, Palos de la Frontera",37.2232499,-6.890867999999999,21810,Zona de los Príncipes,Palos de la Frontera,Andalusia,Spain
codere,SALON VEGAS ABRANTES LAS,"ABRANTES, 97, Madrid",36.160122,-115.147576,89101,Las Vegas,,Nevada,United States
codere,SALON VEGAS ARROYOMOLINOS,"DE LA IGLESIA, 6",40.269454,-3.920698,28939,Arroyomolinos,Arroyomolinos,Community of Madrid,Spain
codere,SALON VEGAS EL MOLAR LAS,"LA SALUD, 3, El Molar",36.1699412,-115.1398296,89101,Las Vegas,,Nevada,United States
codere,SALON VEGAS INFANTA MERCEDES LAS,"INFANTA MERCEDES, 73, Madrid",36.160122,-115.147576,89101,Las Vegas,,Nevada,United States
codere,SALON VEGAS LOS CARMENES LAS,"DE LOS CARMENES, 0, Madrid",36.1699412,-115.1398296,89101,Las Vegas,,Nevada,United States
codere,SALON VEGAS TEMBLEQUE LAS,"TEMBLEQUE, 144, Madrid",36.1699412,-115.1398296,89101,Las Vegas,,Nevada,United States
codere,SALON VEGAS TOPETE LAS,"TOPETE, 31, Madrid",36.1699412,-115.1398296,89101,Las Vegas,,Nevada,United States
codere,SALON VELAZQUEZ,"PINOSO, 21, Alicante",38.3595736,-0.4816328,03012,Alicante,Alicante,Valencian Community,Spain
codere,SALON VERSALLES,"DE ANIBAL E HIMILCE, 2, Linares",38.0922425,-3.640422499999999,23700,Linares,Linares,Andalusia,Spain
codere,SALON WINN,"CUEVA DE MENGA, 3, Sevilla",37.3993565,-5.9437029,41020,Seville,Seville,Andalusia,Spain
codere,SAN VICENTE,"Calle BLASCO IBAÑEZ, 4, San Vicente del Raspeig",38.3959048,-0.5201932,03690,Sant Vicent del Raspeig,San Vicente del Raspeig / Sant Vicent del Raspeig,Valencian Community,Spain
codere,SANSEGUNDO,"Calle LAVAPIES, 8, Madrid",40.4116598,-3.7030686,28012,Madrid,Madrid,Community of Madrid,Spain
codere,SJ JOKER GUADALAJARA,"VIRGEN DEL AMPARO, 23",40.6291375,-3.1635131,19001,Guadalajara,Guadalajara,Castile-La Mancha,Spain
codere,SJ JOKER HUERCAL COL,"DE ALMERIA, 148",37.3962183,-1.9416877,04600,Huércal-Overa,Huércal-Overa,Andalusia,Spain
codere,SJ JOKER VII,"DE LA ESTACION, 2, ZAFRA",38.4244273,-6.4135376,06300,Zafra,Zafra,Extremadura,Spain
codere,SJ Las Vegas Sports Bar,"Santa Clara, 11, Illescas",37.3552818,-121.946428,95050,Santa Clara,,California,United States
codere,SL  BARCO DE LA SUERTE,"Calle EUSKADI, 37, Pasaia",43.3231552,-1.9324323,20110,Pasaia,Pasaia,Basque Country,Spain
codere,SL  BOULEVARD,"Avenida GASTEIZ, 73 - Vitoria-Gasteiz",42.8504634,-2.6812643,01009,Vitoria-Gasteiz,Vitoria-Gasteiz,Basque Country,Spain
codere,SL  CELEDON,"Calle PORTAL DE LEGUTIANO, 5 - Vitoria-Gasteiz",42.8535937,-2.6684766,01013,Vitoria-Gasteiz,Vitoria-Gasteiz,Basque Country,Spain
codere,SL  JACKPOT,"Calle ZUMABURU, 1 - Lasarte-Oria",43.2668642,-2.0204873,20160,Lasarte-Oria,Lasarte-Oria,Basque Country,Spain
codere,SL  JOKER II,"EDUCADOR HERMANO BENJAMIN, 5, Erandio",43.3049858,-2.9718354,48950,Altzaga,Erandio,Basque Country,Spain
codere,SL  PLAZA CAFE,Calle SANTA BARBARA s/n - Vitoria-Gasteiz,42.8449979,-2.6661211,01004,Vitoria-Gasteiz,Vitoria-Gasteiz,Basque Country,Spain
codere,SL  San Ignacio,"Cataluña, 3, Bilbao",43.2833844,-2.962967,48015,Bilbao,Bilbao,Basque Country,Spain
codere,SL  TOPLAY,"Calle JOSE MARIA BARABDIARAN, 1, Barakaldo",43.2969875,-2.9862029,48901,Barakaldo,Barakaldo,Basque Country,Spain
codere,SL  TXABARRI,"Calle 25 DE DICIEMBRE, 20, Sestao",43.3110571,-3.0041616,48910,Sestao,Sestao,Basque Country,Spain
codere,SL  TXALAPARTA,"Calle ISABEL II, 20, Donostia",43.3036491,-1.9780383,20011,San Sebastián,San Sebastián,Basque Country,Spain
codere,SL  ZENTRAL,"Calle BARCELONA, 14 - Vitoria-Gasteiz",42.86655469999999,-2.6938377,01010,Vitoria-Gasteiz,Vitoria-Gasteiz,Basque Country,Spain
codere,SL DOLAR,"FUENTE DEL HIERRO, 27, Pamplona",42.8068955,-1.656519,31007,Pamplona,Pamplona,Navarre,Spain
codere,SL ESTAFETA,"ESTAFETA, 61, Pamplona",42.8169872,-1.6415009,31001,Pamplona,Pamplona,Navarre,Spain
codere,SL FLAMINGO,"CALLE ERREKERTE KALEA, 3, Berriozar",42.8361485,-1.672876,31013,Berriozar,Berriozar,Navarre,Spain
codere,SL FUEROS,"Calle ZUBEROA, 4, Barakaldo",43.2964084,-2.9858218,48901,Barakaldo,Barakaldo,Basque Country,Spain
codere,SL GOLDEN PALACE,"BIDABURUA, 6, Villaba-Atarrabia",42.8308204,-1.6114707,31610,Villava,Villava - Atarrabia,Navarre,Spain
codere,SL JOKER,"Calle AUTONOMIA, 5, Bilbao",43.2572371,-2.9361017,48012,Bilbao,Bilbao,Basque Country,Spain
codere,SL LA BOLERA,"Calle NAFARROA, 27, Barakaldo",43.2949993,-2.9859359,48901,Barakaldo,Barakaldo,Basque Country,Spain
codere,SL LAS VEGAS,"BERNARDINO TIRAPU, 36, Pamplona",36.1699412,-115.1398296,89101,Las Vegas,,Nevada,United States
codere,SL MIAMI,"CALLE DE TAFALLA, 10, Pamplona",42.8126462,-1.6366964,31004,Pamplona,Pamplona,Navarre,Spain
codere,SL MONTECARLO,"RONDA DE LAS VENTAS, 2, Burlada",42.8264518,-1.6191218,31600,Burlada,Burlada,Navarre,Spain
codere,SL NAEX,"CONCEJO DE EGUES, 15, Mendillorri",42.8132142,-1.612202,31016,Pamplona,Pamplona,Navarre,Spain
codere,SL NEVADA,"GONZALEZ TABLAS, 5, Pamplona",38.8026097,-116.419389,,,,Nevada,United States
codere,SL OLIVETO,"CONDE OLIVETO, 2, Pamplona",42.8129216,-1.6437844,31002,Pamplona,Pamplona,Navarre,Spain
codere,SL PALACE,"MONASTERIO DE LA OLIVA, 62, Pamplona",42.8150876,-1.662903,31011,Pamplona,Pamplona,Navarre,Spain
codere,SL PICADILLY,"Calle ESPERANZA, 15 - Vitoria-Gasteiz",42.8591656,-2.681791800000001,01010,Vitoria-Gasteiz,Vitoria-Gasteiz,Basque Country,Spain
codere,SL PLATINO,"INTXAURDIA, 5, Huarte-Pamplona",42.82880919999999,-1.5835447,31620,,Huarte/Uharte,Navarre,Spain
codere,SL SANCHO EL FUERTE,"SANCHO EL FUERTE, 81, Pamplona",42.8114395,-1.6616845,31008,Pamplona,Pamplona,Navarre,Spain
codere,Sala Catedra,"LAGO CONSTANZA, 50, Madrid",40.4305643,-3.6463715,28017,Madrid,Madrid,Community of Madrid,Spain
codere,Sala Olimpo 3,"Calle TOLEDO, 63, Manzanares",38.9994788,-3.3703448,13200,Manzanares,Manzanares,Castile-La Mancha,Spain
codere,Salon ALL IN VI,"Plaza Villa, 5, Fuente El Saz",40.6337039,-3.5133648,28140,Fuente el Saz de Jarama,Fuente el Saz de Jarama,Community of Madrid,Spain
codere,Salon Admiral Humanes,"Calle MADRID, 85, Humanes de Madrid",40.2569843,-3.8241953,28970,Humanes de Madrid,Humanes de Madrid,Community of Madrid,Spain
codere,Salon Africana,"Doña Lola Torres, 1",32.9527492,-96.87131099999999,75006,Carrollton,,Texas,United States
codere,Salon Carrera,"CARRERA, 3, Osuna",37.2373642,-5.1033081,41640,Osuna,Osuna,Andalusia,Spain
codere,Salon Casino,"Ezequiel Gonzalez 45, Segovia",40.9430503,-4.1191388,40002,Segovia,Segovia,Castile and León,Spain
codere,Salon Casino Park Arnedo,"Calle REPUBLICA ARGENTINA, 9, Arnedo",42.2260903,-2.099603,26580,Arnedo,Arnedo,La Rioja,Spain
codere,Salon Choclan Bollullos,"Del Verdeo, 9",37.3356706,-6.1376173,41110,Bollullos de la Mitación,Bollullos de la Mitación,Andalusia,Spain
codere,Salon Choclan Bormujos,"Pablo Coso Calero, 93",37.36937959999999,-6.0774101,41930,Bormujos,Bormujos,Andalusia,Spain
codere,Salon Choclan San Anton,"San Anton, 17",37.4661791,-5.645279899999999,41410,Carmona,Carmona,Andalusia,Spain
codere,Salon Choclan San Pedro,"San Pedro, 49",33.7360619,-118.2922461,90731,Los Angeles,,California,United States
codere,Salon Comodin,"Calle Francisco Pizarro, 69, Albacete",38.9910216,-1.8669818,02004,Albacete,Albacete,Castile-La Mancha,Spain
codere,Salon De Juego Eulogio Paz,"Eulogio Paz,",,,,,,,
codere,Salon De Juego Millennial,"OLIMPICA, 26, Alcobendas",40.5357616,-3.6366165,28108,Alcobendas,Alcobendas,Community of Madrid,Spain
codere,Salon Diamante,"Arrayanes, 33",,,,,,,
codere,Salon Estacion,"De La Estación 40, Ávila",40.656685,-4.6812086,05004,Ávila‎,Ávila,Castile and León,Spain
codere,Salon Fenix,"Federico Mendizabal, 1",37.7683719,-3.7883695,23001,Jaén,Jaén,Andalusia,Spain
codere,Salon Figueres,"PUJADA DEL CASTELL, 21, Figueres",42.2672932,2.959114,17600,Figueres,Figueres,Catalonia,Spain
codere,Salon Flamingo Caceres,"Juan XXIII, 3",39.468391,-6.382464,10001,Cáceres‎,Cáceres,Extremadura,Spain
codere,Salon Flamingo Plasencia,"Juan Carlos I, 8, Plasencia",40.0331135,-6.087129699999999,10600,Plasencia,Plasencia,Extremadura,Spain
codere,Salon Fortuna,"Minilla, 2, La Rambla",37.609813,-4.739449,14540,La Rambla,La Rambla,Andalusia,Spain
codere,Salon Fortuna,"de la Constitución, 91, Torredelcampo",37.7696554,-3.8999013,23640,Torredelcampo,Torredelcampo,Andalusia,Spain
codere,Salon Jubelmar,"LUIS BRAILLEN, S/N, La Solana",38.94160129999999,-3.2392014,13240,La Solana,La Solana,Castile-La Mancha,Spain
codere,Salon Juegos Admiral Alcala,"Calle ALCALA, 412, Madrid",40.432685,-3.6525034,28027,Madrid,Madrid,Community of Madrid,Spain
codere,Salon Juegos Jubelmar,"Del Padre Cura, 14",38.94499,-3.231476,13240,La Solana,La Solana,Castile-La Mancha,Spain
codere,Salon Juegos Nevada Embajadores,"Glorieta EMBAJADORES s/n, Madrid",40.4048051,-3.702798,28012,Madrid,Madrid,Community of Madrid,Spain
codere,Salon Juegos Royal Crown Bravo Murillo,"Calle BRAVO MURILLO, 228, Madrid",40.45827550000001,-3.7006076,28020,Madrid,Madrid,Community of Madrid,Spain
codere,Salon Juegos Royal Crown Peña Rubia,"Calle PEÑA RUBIA, 1, Madrid",40.3968896,-3.6670115,28053,Madrid,Madrid,Community of Madrid,Spain
codere,Salon Las Vegas,"Valladolid 15, Ávila",36.160122,-115.147576,89101,Las Vegas,,Nevada,United States
codere,Salon Las Vegas Vallecas,"Rafael Alberti, 27, Madrid",40.385877,-3.641947,28018,Madrid,Madrid,Community of Madrid,Spain
codere,Salon Magic,"CARLOS III, 109, La Carlota",37.6701607,-4.9358365,14100,La Carlota,La Carlota,Andalusia,Spain
codere,Salon Miranda De Ebro,"Madrid - Irún, km.318 - Miranda de ebro",42.686899,-2.9618517,09200,Miranda de Ebro,Miranda de Ebro,Castile and León,Spain
codere,Salon Money Street,"Libertad, 8, Úbeda",40.4210178,-3.6962588,28004,Madrid,Madrid,Community of Madrid,Spain
codere,Salon Monix Park,"Numa Guilhou, 4, Mieres",43.2506303,-5.7760071,33600,Mieres del Camino,Mieres,Asturias,Spain
codere,Salon Nevada Alcala De Henares Talamanca,"Calle TALAMANCA, 10, Alcalá de Henares",40.4843021,-3.3645523,28801,Alcala de Henares,Alcalá de Henares,Community of Madrid,Spain
codere,Salon Oper,"De La Estacion, 7, Puente Genil",37.393224,-4.76412,14500,Puente Genil,Puente Genil,Andalusia,Spain
codere,Salon Oper Diver,"Andalucia, 33",37.5442706,-4.7277528,14550,,Montilla,Andalusia,Spain
codere,Salon Oper Salon Abastos,"España, 3, Palma Del Rio",37.69821710000001,-5.2801691,14700,Palma del Río,Palma del Río,Andalusia,Spain
codere,Salon Operoeste,"CHILE, 16",-35.675147,-71.542969,,,,Maule Region,Chile
codere,Salon Palace,"De Andalucia, 13, Jaen",37.7795941,-3.784905699999999,23009,Jaén,Jaén,Andalusia,Spain
codere,Salon Play Zone,"Ciudad De Barcelona, 12, Guadalajara",41.3850639,2.1734035,08002,Barcelona,Barcelona,Catalonia,Spain
codere,Salon Poker Play,"Nuestra Señora De La Paz, 15",36.6870249,-6.1283664,11405,Jerez,Jerez de la Frontera,Andalusia,Spain
codere,Salon Principe,"Calle BEBRICIO, 4, Calahorra",42.3022591,-1.9639865,26500,Calahorra,Calahorra,La Rioja,Spain
codere,Salon Soria,"MELCHOR GARCIA NAVARRO, 1, Soria",41.7687781,-2.4685235,42005,Soria,Soria,Castile and León,Spain
codere,Salon Talisman,"De Jaen, esquina calle Martinez Montañes",37.771235,-3.790281,23007,Jaén,Jaén,Andalusia,Spain
codere,Salon Torre Del Mar,"Saladero Viejo, 1",36.7404439,-4.0926733,29740,Torre del Mar,Vélez-Málaga,Andalusia,Spain
codere,Salon Victoria,"Principe Felipe, esq. calle Granada, Martos",37.717355,-3.9695419,23600,Martos,Martos,Andalusia,Spain
codere,TERRAZA LA,"INDALEZIO OJANGUREN KALEA, 2, Eibar",43.18222249999999,-2.4757013,20600,Eibar,Eibar,Basque Country,Spain
codere,TREBOL ALCALA DE HENARES,"Calle LOPE DE VEGA, 1, Alcalá de Henares",40.490208,-3.357037,28805,Alcala de Henares,Alcalá de Henares,Community of Madrid,Spain
codere,TREBOL ANTONIO LOPEZ,"Calle ANTONIO LOPEZ, 57, Madrid",40.3947875,-3.709107399999999,28019,Madrid,Madrid,Community of Madrid,Spain
codere,TREBOL CAMINO VIEJO DE LEGANES,"Calle CAMINO VIEJO DE LEGANES, 147, Madrid",40.3834691,-3.7292689,28025,Madrid,Madrid,Community of Madrid,Spain
codere,TREBOL D3,"Calle SAN ROQUE, 5, Navalcarnero",40.2869496,-4.0135683,28600,Navalcarnero,Navalcarnero,Community of Madrid,Spain
codere,TREBOL LOPEZ DE HOYOS,"Calle LOPEZ DE HOYOS, 103, Madrid",40.4453912,-3.6724484,28002,Madrid,Madrid,Community of Madrid,Spain
codere,TREBOL TOLEDO,"Calle TOLEDO, 61, Madrid",40.411302,-3.7079903,28005,Madrid,Madrid,Community of Madrid,Spain
codere,VILACASINO I,"Avenida PAIS VALENCIANO, 31, La Vila Joiosa/Villajoyosa",38.5073337,-0.2294184,03570,La Vila Joiosa,Villajoyosa,Valencian Community,Spain
codere,VILACASINO II,"Calle DOCTOR FLEMING, 29, San Vicente del Raspeig",38.4001055,-0.5214959,03690,Sant Vicent del Raspeig,San Vicente del Raspeig / Sant Vicent del Raspeig,Valencian Community,Spain
codere,VILACASINO III,"Avenida JUAN CARLOS I, 4, La Vila Joiosa/Villajoyosa",38.50791,-0.2322979999999999,03570,La Vila Joiosa,Villajoyosa,Valencian Community,Spain
codere,VINACEGO,"Calle MERKATONDOA, 2, Estella",42.66368,-2.03243,31200,Estella,Estella-Lizarra,Navarre,Spain
codere,Venecia Salon,"PEDRO MAS Y REUS, 6, 2MCB)",33.4091503,-111.8226053,85204,Mesa,,Arizona,United States
codere,ZENTRAL SPORTS SALON DE JUEGO,"Simon Hernandez, 36",40.3212388,-3.860772,28937,Móstoles,Móstoles,Community of Madrid,Spain
codere,A BALSA,"Travesia TRAVESIA DE MEICENDE, 12, A Coruña",43.33994999999999,-8.45638,15008,,Arteixo,Galicia,Spain
codere,A BARRICA,"Calle DO RECREO, 3, Ordes",43.0756798,-8.408374199999999,15680,Ordes,Ordes,Galicia,Spain
codere,A BODEGUILLA DE MARCE,"PRAZA CAMPO DA FERIA, 12, Sober",42.4612018,-7.5870703,27460,Sober,Sober,Galicia,Spain
codere,A BULLA,"DEL GENERAL VIDAL RIOS, S/N, Zas",43.1497385,-8.9653796,15150,,Zas,Galicia,Spain
codere,A Cerve,"Calle RUA DO TORNO 5, San Cibrao",43.6956887,-7.442662700000001,27890,San Cibrao,Cervo,Galicia,Spain
codere,A DE MEIRA,"LOUREIRO CRESPO, 72, Pontevedra",42.4283986,-8.6303246,36004,Pontevedra,Pontevedra,Galicia,Spain
codere,A DO CUÑADO,"Novo Mesoiro, 5, Coruña",43.3257157,-8.432811,15190,Polígono de Pocomaco,A Coruña,Galicia,Spain
codere,A DO NOTAS,"Avenida Finisterre, 23, Agualada",43.15899700000001,-8.8026026,15147,Bormoio,Coristanco,Galicia,Spain
codere,A DO PANADEIRO,"Calle SAN ROQUIÑO, 13, Lousame",42.74921550000001,-8.869463399999999,15216,Sanguiñal,Lousame,Galicia,Spain
codere,A ESTACION,"CALLE JUAN ANTONIO SUANCES, La Coruña",43.3623436,-8.4115401,15005,A Coruña,A Coruña,Galicia,Spain
codere,A FONTE,"LODEIRO EDIFICIO NAUTICO, 4, Viveiro",43.6642649,-7.594534800000001,27869,Viveiro,Viveiro,Galicia,Spain
codere,A GALERIA,"REAL, 25, Fisterra",42.9067764,-9.2628083,15155,Fisterra,Fisterra,Galicia,Spain
codere,A KLA-B,"Avenida COMPOSTELA, 6, O Carballiño",42.4338875,-8.0745801,32500,O Carballiño,O Carballiño,Galicia,Spain
codere,A LAXE,"Calle CORRELO, 3, Feáns",43.2212167,-9.0063506,15117,Laxe,Laxe,Galicia,Spain
codere,A NOSA TERRA,"Rúa Agra De Bragua, 3, Coruña",43.3587498,-8.4210446,15010,A Coruña,A Coruña,Galicia,Spain
codere,A OFISINA,"RÚA A PENA, 6, Cee",42.9557,-9.18797,15270,Cee,Cee,Galicia,Spain
codere,A Oficina,"Calle GREGORIO FERNANDEZ, 36, Sarria",42.7803497,-7.410980599999999,27600,Sarria,Sarria,Galicia,Spain
codere,A PARRA,"SAN EUFRASIO, 171, Lugo",43.0095268,-7.5482127,27002,Lugo,Lugo,Galicia,Spain
codere,A PEDRA,"AVENIDA LOS CAIDOS, 38, A Coruña",43.3518848,-8.3941717,15009,A Coruña,A Coruña,Galicia,Spain
codere,A PITA DE OURO,"CAION, 65, Arteixo",43.307396,-8.5149325,15142,,Arteixo,Galicia,Spain
codere,A SOLAINA,"BALNEARIO, 18",42.434568,-8.079338,32500,O Carballiño,O Carballiño,Galicia,Spain
codere,A SUCURSAL DO GARABULLO,"RIO MONELOS, 44, Coruña",43.3552672,-8.4018407,15006,A Coruña,A Coruña,Galicia,Spain
codere,A TABERNA,"SANTA BARBARA, 37, Ares",43.4280921,-8.2427941,15624,Ares,Ares,Galicia,Spain
codere,A TAPA,"AVENIDA DOS MILAGROS, 28, Maceda",42.2662714,-7.649924599999999,32700,Maceda,Maceda,Galicia,Spain
codere,A TASCA DE LOLA,"AS PONTES, 9, Santa Cecilia - Naron",43.492371,-8.1986159,15570,Narón,Narón,Galicia,Spain
codere,A TODA CAÑA,"Avenida VILABOA, 132, Vilaboa (Rutis)",43.3172645,-8.3836402,15174,,Culleredo,Galicia,Spain
codere,A TUA TABERNA,"CARRETERA DE SANTIAGO 55, Tamallancos",42.4257077,-7.9022783,32102,Tamallancos,Vilamarín,Galicia,Spain
codere,A Tasca 3 Portas,"Rua Real, 3, Muros",42.774527,-9.0582738,15250,Muros,Muros,Galicia,Spain
codere,A VAINA,"Calle ALFREDO TELLA, 5, A Coruña",43.3606691,-8.421780499999999,15010,A Coruña,A Coruña,Galicia,Spain
codere,A VIANDA,"Avenida Castelao, 47, Muros",42.7760386,-9.0589317,,Muros,Muros,Galicia,Spain
codere,A XARRA,"Avenida SANTIAGO, 25, Negreira",42.9098914,-8.7341674,15830,Negreira,Negreira,Galicia,Spain
codere,ABAKA,"Calle PLAZUELA, 29, Lodosa",42.42547400000001,-2.0794523,31580,Lodosa,Lodosa,Navarre,Spain
codere,ABC,"DOCTOR NICASIO BENLLOCH, 5, Valencia",39.4871264,-0.3892198,46009,Valencia,Valencia,Valencian Community,Spain
codere,ABEIRO,"Travesia MEICENDE, 114, Pastoriza (Santa Maria)",43.34405599999999,-8.4501916,15008,,Arteixo,Galicia,Spain
codere,ABRENTE,"RUEIRO DO VENTORRILLO, 86, Malpica de Bergantiños",43.320367,-8.8194211,15113,Malpica,Malpica de Bergantiños,Galicia,Spain
codere,ABSENTA,"Carrer Santa Maria de la Cabeza, Crevillente",38.24587229999999,-0.8102594999999999,03330,Crevillent,Crevillent,Valencian Community,Spain
codere,ABUELO,"RUA LA HAYA, 1, A Coruña",43.3129598,-8.420234299999999,15008,,A Coruña,Galicia,Spain
codere,ABUELO,"LEVANTE, 5, Castellon de la Plana",39.9749156,-0.0527946,12006,Castellón de la Plana,Castellón de la Plana,Valencian Community,Spain
codere,ACUARIO,"AVENIDA GALICIA, 54, Porto Do Son",42.7256045,-9.003348899999999,15978,Porto do Son,Porto do Son,Galicia,Spain
codere,ADEMUZ,"MONESTIR DE POBLET, Valencia",39.4842913,-0.3967451,46015,Valencia,Valencia,Valencian Community,Spain
codere,ADI,"EXTREMADURA, 9, Donostia-San Sebastian",43.3127434,-1.9582624,20015,San Sebastián,San Sebastián,Basque Country,Spain
codere,ADRIAN,"Plaza JAUME I, 2, Dénia",38.835296,0.102918,03700,Dénia,Dénia,Valencian Community,Spain
codere,AEROPUERTO,"ARCS, 11, Manises",39.48631049999999,-0.4668973,46940,Manises,Manises,Valencian Community,Spain
codere,AGARIMO,"Alto Do Couso, 3, Alto Do Couso",42.312673,-7.676672,32720,Alto do Couso,Esgos,Galicia,Spain
codere,AGARIMO,"Calle PREGUNTOIRO, 2, Santiago de Compostela",42.8809994,-8.5425113,15704,Santiago de Compostela,Santiago de Compostela,Galicia,Spain
codere,AGRUPACION GALICIA SOCIAL,"Calle MARQUES DE VALLADARES, 29, Vigo",42.2381897,-8.7217947,36201,Vigo,Vigo,Galicia,Spain
codere,AGUAMARINA PINCHOS Y TAPAS,"VICENTE BLASCO IBAÑEZ,s/n, Orihuela",37.90750329999999,-0.7449926,03189,,Orihuela,Valencian Community,Spain
codere,AGUILAR,"Calle BENAGUACIL, 18, Valencia",39.4937324,-0.3974263,46015,Valencia,Valencia,Valencian Community,Spain
codere,AL ANDALUS,"CARNICERIAS, 13, Tudela",42.062451,-1.606643,31500,Tudela,Tudela,Navarre,Spain
codere,AL JAZIRA,"FUENTE CANONIGOS, 5, Tudela",42.0564677,-1.599589,31500,Tudela,Tudela,Navarre,Spain
codere,AL OTRO LADO DE LA CAPILLA,"Calle PORTAL, 4, Fustiñana",42.0201,-1.4859,31510,Fustiñana,Fustiñana,Navarre,Spain
codere,AL PASO,"Carretera NACIONAL VI KM 582, 1, Sada",43.315936,-8.286899,15168,,Sada,Galicia,Spain
codere,ALAHAMBRA,"VALLADOLID, 6, Valencia",39.4894061,-0.3620111,46020,Valencia,Valencia,Valencian Community,Spain
codere,ALAI,"Calle TAJONAR, 7, Pamplona",42.80606119999999,-1.6351402,31006,Pamplona,Pamplona,Navarre,Spain
codere,ALAI,"REYES DE NAVARRA, 2, Vitoria",42.851871,-2.6709461,01001,Vitoria-Gasteiz,Vitoria-Gasteiz,Basque Country,Spain
codere,ALAMEDA,"Rua Ribeira Maio 53, FISMARE)",37.7652065,-122.2416355,94501,Alameda,,California,United States
codere,ALAMEDA,"ALAMEDA, S/N VILAZA, Vilaza",37.7652065,-122.2416355,94501,Alameda,,California,United States
codere,ALAMEDA BEER S,"ALAMEDA, 15, Valencia",39.4741804,-0.3642978,46010,Valencia,Valencia,Valencian Community,Spain
codere,ALBATROS,"ELECTRICAS NERVION, 3, Barakaldo",43.300705,-2.982204,48901,Barakaldo,Barakaldo,Basque Country,Spain
codere,ALBERO,"Calle ZOLINA, 3, Pamplona",42.7982448,-1.6411975,31006,Pamplona,Pamplona,Navarre,Spain
codere,ALBORADA,"ROSALIA DE CASTRO, 32, Santa Comba",43.0339259,-8.8170161,15840,Santa Comba,Santa Comba,Galicia,Spain
codere,ALCAZAR,"Plaça del País Valencià, 20, Castelló de la Plana",39.98089,-0.0418487,12002,Castellón de la Plana,Castellón de la Plana,Valencian Community,Spain
codere,ALEIXANDRE - Valencia,"Calle AUSIAS MARCH, 19, Valencia",,,,,,,
codere,ALEX II,"PLAZA SAGRADO CORAZON, 9, Cedeira",43.6604119,-8.0542594,15350,Cedeira,Cedeira,Galicia,Spain
codere,ALFAFAR,"Calle RAMON LACREU NAVARRO, 2, Alfafar",39.4263154,-0.391796,46910,,Alfafar,Valencian Community,Spain
codere,ALHAMBRA LA,"XATIVA, 54, Cocentaina",38.7499914,-0.4388846,03820,Cocentaina,Cocentaina,Valencian Community,Spain
codere,ALI-BABA,"PILAR, 90, Vinaròs",40.4689631,0.4730852,12500,Vinaròs,Vinaròs,Valencian Community,Spain
codere,ALIMENTACION MANOLA,"CARRETERA OU 402, 28, Arnoia",42.2538717,-8.1379051,32417,A Arnoia,A Arnoia,Galicia,Spain
codere,ALL BURGUERS,"Tomas Trenor, 6, Meliana",39.5284611,-0.3511504,46133,Meliana,Meliana,Valencian Community,Spain
codere,ALL I PEBRE,"Calle RIBARROJA, 1, Manises",39.49142,-0.4592114,46940,Manises,Manises,Valencian Community,Spain
codere,ALMADRABA,"MARTINEZ CATENA, 6, Ceuta",35.8794314,-5.3365918,51002,Ceuta,Ceuta,Ceuta,Spain
codere,ALMASSERA,"Calle SAN ANTONIO, 21, Tormos",39.5104704,-0.3571841,46132,Almàssera,Almàssera,Valencian Community,Spain
codere,ALMUERZOS E PETISCOS PAN DO LUIS,"Calle RIBEIRIÑO, 10, Ourense",42.3304971,-7.863612900000001,32005,Ourense,Ourense,Galicia,Spain
codere,ALTAMIRA,"Calle TOMAS AZNAR DOMENECH s/n, Alacant",38.342842,-0.5150003,03007,Alicante,Alicante,Valencian Community,Spain
codere,ALTEA CIEZA,"Avenida JUAN XXIII, 120, Cieza",38.23802209999999,-1.4149562,30530,Region of Murcia,Cieza,Region of Murcia,Spain
codere,ALTIANA,"Calle ERVEDELO, 14, Ourense",42.33991200000001,-7.867990499999999,32003,Ourense,Ourense,Galicia,Spain
codere,AMANECER,"RUA TUI, 41, Lugo",43.0135441,-7.565237300000001,27004,Lugo,Lugo,Galicia,Spain
codere,AMBIGU,"CLAVELES, 56, A Coruña",43.3462323,-8.4030098,15008,A Coruña,A Coruña,Galicia,Spain
codere,AMERICANO,"Calle PEGO, 10, Benimamet",39.5027683,-0.4181767,46035,Valencia,Valencia,Valencian Community,Spain
codere,AMIGOS,"PUERTO DEPORTIVO LAS FUENTES, Alcoceber",40.2493031,0.2873635,,,Alcalà de Xivert,Valencian Community,Spain
codere,AMIGOS DE CANALS LOS,"VICENTE FERRI, 49, Canals",38.965396,-0.5870177,46650,Canals,Canals,Valencian Community,Spain
codere,"AMIGOS, LOS","Avda. Alquería de Moret, 19-21",39.4376246,-0.4273951,46210,,Picanya,Valencian Community,Spain
codere,AMISTAD LA,"GENERAL CONCHA, 44, Bilbao",43.2566112,-2.9364421,48012,Bilbao,Bilbao,Basque Country,Spain
codere,AMOR,"Carrer de les Acàcies, 8, Valencia",39.4902119,-0.3886319,46025,Valencia,Valencia,Valencian Community,Spain
codere,AMOROS,"Burjasot, 50, Valencia",39.4848977,-0.3846758,46009,Valencia,Valencia,Valencian Community,Spain
codere,ANAITA,"ANAITASUNA, 7",,,,,,,
codere,ANAR I TORNAR,"Calle RAMON Y CAJAL, 32, Torrent",39.4376671,-0.4676916,46900,Torrent,Torrent,Valencian Community,Spain
codere,ANCAR,"EMILIO GONZALEZ LOPEZ, 4, Coruña",43.3751957,-8.4317964,15011,A Coruña,A Coruña,Galicia,Spain
codere,ANCLA EL,"HABANERAS, 72, Torrevieja",37.989917,-0.6857270999999999,03184,Torrevieja,Torrevieja,Valencian Community,Spain
codere,ANCORA,"Rúa Manuel Fraga Iribarne, 8, Cariño",43.7407849,-7.8690943,15360,Cariño,Cariño,Galicia,Spain
codere,ANDALUCIA,"Calle CALVO SOTELO, 40, A Estrada",42.6897576,-8.4884911,36680,A Estrada,A Estrada,Galicia,Spain
codere,ANDALUZ MESON,"POBLA DE VALLBONA, 4",39.5927988,-0.5539042,46185,La Pobla de Vallbona,La Pobla de Vallbona,Valencian Community,Spain
codere,ANDALUZA LA,"IRUÑALDE, 18, Berriozar",42.8362904,-1.6757879,31013,Berriozar,Berriozar,Navarre,Spain
codere,ANDATZA,"ANDATZA PLAZA, 5, Lasarte-Oria",43.2722112,-2.0168264,20160,Lasarte-Oria,Lasarte-Oria,Basque Country,Spain
codere,ANDIA,"Calle INMACULADA, 15, Estella",,,,,,,
codere,ANDRAS,"Plaza DANIEL R. CASTELAO, 1, O Burgo",43.3158805,-8.3643761,15670,O Burgo,Culleredo,Galicia,Spain
codere,ANDY BAR,"Calle GASPAR AGUILAR, 27, Valencia",39.456818,-0.3902922,46007,Valencia,Valencia,Valencian Community,Spain
codere,ANGEL,"ESPERANTO, 10, Benidorm",38.5429804,-0.1189288,03503,Benidorm,Benidorm,Valencian Community,Spain
codere,ANGEL,"MIGUEL SERVET, 2, Sestao",43.307916,-2.9993252,48910,Sestao,Sestao,Basque Country,Spain
codere,ANGELES VENTA LOS,"ALCORA, S/N, Castelló de la Plana",40.0163954,-0.1291859,12006,,Castellón de la Plana,Valencian Community,Spain
codere,ANPHITRYON,"Calle ALBORAYA, 65, Valencia",39.4863755,-0.3684559,46010,Valencia,Valencia,Valencian Community,Spain
codere,ANSU,"Calle SANTO TOMAS, 68, A Coruña",43.3792883,-8.401728799999999,15002,A Coruña,A Coruña,Galicia,Spain
codere,ANSU II,"Calle TORRE, 120, A Coruña",43.3788738,-8.398224299999999,15002,A Coruña,A Coruña,Galicia,Spain
codere,ANTOXO,"A Peneda, 2, Abegondo",43.226838,-8.2896471,15318,Abegondo,Abegondo,Galicia,Spain
codere,ANTOXO,"GARCIA SALAZAR, 34, Bilbao",43.2565317,-2.9329102,48003,Bilbao,Bilbao,Basque Country,Spain
codere,ANTXE,"Calle LERIN, 11, Ansoáin",42.83196239999999,-1.6407533,31013,Ansoáin,Ansoáin,Navarre,Spain
codere,ANXERIZ,"PARDIÑEIROS, 3, O Milladoiro",42.8462606,-8.576361,15895,O Milladoiro,Ames,Galicia,Spain
codere,ANXO,"Avenida CASTELAO, 23, Santiago de Compostela",42.8926872,-8.5417989,15704,Santiago de Compostela,Santiago de Compostela,Galicia,Spain
codere,AQUARIO,"Concordia, 3, Quart de Poblet",39.4808644,-0.4445251,46930,Quart de Poblet,Quart de Poblet,Valencian Community,Spain
codere,ARAGON,"Calle TRAFALGAR, 37, Quart de Poblet",39.482713,-0.447473,46930,Quart de Poblet,Quart de Poblet,Valencian Community,Spain
codere,ARANJUEZ SALON,"AUTOVIA A-4, 87, Aranjuez",40.039854,-3.607441999999999,28300,,Aranjuez,Community of Madrid,Spain
codere,ARBARA,"SAN IGNACIO DE LOYOLA, 1, Vitoria-Gasteiz",42.8527981,-2.6722772,01001,Vitoria-Gasteiz,Vitoria-Gasteiz,Basque Country,Spain
codere,ARBOLEDA,"Avenida FINISTERRE, 31, San Roque (Coristanco)",43.3653548,-8.4110968,15004,A Coruña,A Coruña,Galicia,Spain
codere,ARCHY,"MARTINEZ AVELLANOSA, 13, Carballiño",42.4320619,-8.0778461,32500,O Carballiño,O Carballiño,Galicia,Spain
codere,ARCO,"SANTOS JUSTO Y PASTOR 0128, Valencia",39.4669691,-0.3401656,46022,Valencia,Valencia,Valencian Community,Spain
codere,ARCOIRIS,"Calle ARZOBISPO OLAECHEA, 8, Valencia",39.443335,-0.3883321,46017,Valencia,Valencia,Valencian Community,Spain
codere,ARDANDEGI,"LA IBERIA, 4, Sestao",43.310222,-3.005037,48910,Sestao,Sestao,Basque Country,Spain
codere,AREA 51,"Camí Reial, 104, Segorbe",37.2371623,-115.8018432,,,,Nevada,United States
codere,AREA SERV  TAMALLANCOS,"Parque EMPRESARIAL VILAMARIN, 2, Vilamarín",42.4265988,-7.902103099999999,32102,Tamallancos,Vilamarín,Galicia,Spain
codere,AREAS,"Ribeira Do Maio, 9, Muros",42.5540645,-8.9922481,15960,Ribeira,Ribeira,Galicia,Spain
codere,AREZZO CAFE,"SANTOS JUSTO Y PASTOR, 164, Valencia",39.4655376,-0.3360498,46022,Valencia,Valencia,Valencian Community,Spain
codere,ARGALLO,"Ronda MERCEDES, 43, Lugo",43.0009461,-7.5460895,27002,Lugo,Lugo,Galicia,Spain
codere,ARILLA,"Calle MARTIN AZPILICUETA, 1, Pamplona",42.8143813,-1.6629342,31011,Pamplona,Pamplona,Navarre,Spain
codere,ARKUPE,"ZAMAKOLA 71, Bilbao",43.2411781,-2.9219222,48003,Bilbao,Bilbao,Basque Country,Spain
codere,ARLEQUIN,"NUESTRA SEÑORA DEL ROSARIO, 7, Mimetiz",43.2144327,-3.1330801,48860,Mimetiz,Zalla,Basque Country,Spain
codere,ARMANDO,"Calle ESCRITOR AMANCIO M. RUIZ, 2, Monòver",38.4359831,-0.840116,03640,Monòver,Monòver,Valencian Community,Spain
codere,ARNICHES,"Calle CID, DEL, 132, Valencia",39.4703471,-0.4077188,46014,Valencia,Valencia,Valencian Community,Spain
codere,AROMA,"Calle ESPAÑOLETO, 48, Ferrol",43.4843127,-8.2268196,15403,Ferrol,Ferrol,Galicia,Spain
codere,AROMAS,"Plaza VILLANUEVA DE ALCOLEA, 3, Castelló de la Plana",39.975788,-0.047657,12005,Castellón de la Plana,Castellón de la Plana,Valencian Community,Spain
codere,AROMAS DE RIOJA,Tejeras (Parque Rioja),42.45214379999999,-2.467706,26007,Logroño,Logroño,La Rioja,Spain
codere,ARRANCADEIRA,"DO BALNEARIO, 99, O Carballiño",42.4305309,-8.081411,32500,O Carballiño,O Carballiño,Galicia,Spain
codere,ARRANDI,"ARRANDI, 5, Barakaldo",43.2968057,-2.9849585,48901,Barakaldo,Barakaldo,Basque Country,Spain
codere,ARRIBA LA CUCHARA,"Calle MARIA LUISA DURAN MARQUINA, 8, A Coruña",43.3698669,-8.4179247,15011,A Coruña,A Coruña,Galicia,Spain
codere,ARRINCADEIRA,"Avenida Terra Cha, 14, Riberas De Lea (Castro de Rey)",43.13826650000001,-7.493276799999999,27260,Castro de Ribeiras,Castro de Rei,Galicia,Spain
codere,ARTE PURO,"MAR DE BARENTS, 2, Castello De La Plana",39.9757828,-0.0553117,12006,Castellón de la Plana,Castellón de la Plana,Valencian Community,Spain
codere,AS GAUNAS,"NUEVA DE CARANZA, 88",43.4878407,-8.2178931,15404,Ferrol,Ferrol,Galicia,Spain
codere,AS TRES MARIAS,"SANJURJO CARRICARTE, 13, Culleredo",43.31501309999999,-8.367321,15670,O Burgo,Culleredo,Galicia,Spain
codere,AS TRES PONTES,"GALICIA, 15, As Pontes",43.44685,-7.852729999999999,15328,As Pontes de García Rodríguez,As Pontes de García Rodríguez,Galicia,Spain
codere,AS VEGAS,"Rúa San Xurxo, 2, Camariñas",43.1347876,-9.182612899999999,15123,Camariñas,Camariñas,Galicia,Spain
codere,ASADOR FILIPINAS,"FILIPINAS, 12, Elda",12.879721,121.774017,,,,,None
codere,ASADOR SAN ROQUE,"Aldea San Martin De Abaixo, 1, Fisterra",42.9154014,-9.2676992,15154,,Fisterra,Galicia,Spain
codere,ASIA,"AVENIDA DE GALICIA, 10, Ribadeo",43.5366501,-7.046345199999999,27700,Ribadeo,Ribadeo,Galicia,Spain
codere,ATLANTICO,"Calle BENIGNO QUIROGA, 71, Sarria",42.77453939999999,-7.413420400000001,27600,Sarria,Sarria,Galicia,Spain
codere,ATLANTIDA,"Calle CORRALES s/n, Barañáin",42.8041023,-1.6846077,31010,Barañáin,Barañáin,Navarre,Spain
codere,ATOMIC,"CONVENTO JERUSALEN, 51",39.4648161,-0.3800772,46007,Valencia,Valencia,Valencian Community,Spain
codere,ATSEGIN,"Villa De Plentzia Kalea, 14, Getxo",43.3332295,-3.0051523,48930,Getxo,Getxo,Basque Country,Spain
codere,AUCKLAND,"SAGRADA FAMILIA, 18, Coruña",-36.8484597,174.7633315,1141,Auckland,,Auckland,New Zealand
codere,AVALON,"BULEVAR DE MARITURRI, 46, Vitoria-Gasteiz",42.8482745,-2.7095722,01015,Vitoria-Gasteiz,Vitoria-Gasteiz,Basque Country,Spain
codere,AVENIDA,"LA CARRETERA, 11, Bicorp",39.1310964,-0.7869516999999999,46825,Bicorp,Bicorp,Valencian Community,Spain
codere,AVENIDA,"EXCELENTISIMA DIPUTACION, 9, Font D",38.9176047,-0.1710627,46717,La Font d'En Carròs,La Font d'En Carròs,Valencian Community,Spain
codere,AVENIDA,"DE LA RIOJA, 14, Najera",42.4182469,-2.7315024,26300,Nájera,Nájera,La Rioja,Spain
codere,AVENIDA,"Av. España, 112, Segorbe",39.8474,-0.4897,12400,Segorbe,Segorbe,Valencian Community,Spain
codere,AVENIDA,"Ecuador, 59, Valencia",39.49370330000001,-0.3899123,46025,Valencia,Valencia,Valencian Community,Spain
codere,AVENIDA,"Avenida de la Pata, 93, Valencia",,,,,,,
codere,AVENIDA 38,"Avenida de Madrid, 38, Petrer",38.4812166,-0.7857900999999999,03610,Petrer,Petrer,Valencian Community,Spain
codere,AVILA,"XIQUET BENAGUASIL, 10, Benaguasil",39.5907553,-0.5885002000000001,46180,Benaguasil,Benaguasil,Valencian Community,Spain
codere,AZABACHE,"POETA MAS Y ROS, 70, Valencia",39.4694925,-0.3453618,46022,Valencia,Valencia,Valencian Community,Spain
codere,AZAR,"Calle BRAVO MURILLO, 27, Madrid",40.436269,-3.7044795,28015,Madrid,Madrid,Community of Madrid,Spain
codere,AZAR CASINOS MORATALAZ,"Calle CORREGIDOR DIEGO DE VALDERRABANO, 25, Madrid",40.4118581,-3.6583601,28030,Madrid,Madrid,Community of Madrid,Spain
codere,AZCARRAGA,"Avenida CARLOS AZCARRAGA, 4, Lugo",43.0161673,-7.549967,27297,,Lugo,Galicia,Spain
codere,AZKEN PORTU,"Calle JUAN THALAMAS LABANDIBAR, 39, Irun",43.3414432,-1.7763288,20304,Irun,Irun,Basque Country,Spain
codere,AZKENA,"MONS, 112, Donostia San Sebastian",43.316632,-1.947449,20015,San Sebastián,San Sebastián,Basque Country,Spain
codere,Abastos,"Mercado Municipal Plaza Concello, S/N, Carballo",43.2131657,-8.6886165,15102,Carballo,Carballo,Galicia,Spain
codere,Abeiro,"Eduardo Pondal, 54, A Coruña",43.3709515,-8.4232415,15011,A Coruña,A Coruña,Galicia,Spain
codere,Adonix,"Calle MAYOR, 12, Oion",42.5057157,-2.4366172,01320,Oion,Oyón-Oion,Basque Country,Spain
codere,Adrian,"Plaza GORBEA MENDI, 5, Portugalete",43.31489699999999,-3.016937,48920,Portugalete,Portugalete,Basque Country,Spain
codere,Akadia,"Calle TXOTENA, 23, Bilbao",43.2579999,-2.8963782,48004,Bilbao,Bilbao,Basque Country,Spain
codere,Aker,"Barrena Kalea, 3, Miraballes",43.181708,-2.901837,48490,Ugao-Miraballes,Ugao-Miraballes,Basque Country,Spain
codere,Alai - Martutene,"Calle TRANVIA, 33, Donostia",43.2956792,-1.9561382,20014,San Sebastián,San Sebastián,Basque Country,Spain
codere,Alborada,"Avenida 13 de abril - A Picota, 60 - Mazaricos, Mazaricos",42.9369883,-8.990572799999999,15258,A Picota,Mazaricos,Galicia,Spain
codere,Alhama,"Gonzalo De Berceo, 17, Logroño",42.4658783,-2.4573626,26005,Logroño,Logroño,La Rioja,Spain
codere,Alta Mar,"blasco Ibañez, 24, Tavernes de la Valldigna",39.0978947,-0.2204283,46760,,Tavernes de la Valldigna,Valencian Community,Spain
codere,Amaia,"Calle SANTUTXU, 71, Bilbao",43.250509,-2.9181807,48006,Bilbao,Bilbao,Basque Country,Spain
codere,Amaranta,"Plaza Picota, A Xironda",41.8992303,-7.6379905,32688,A Xironda,Cualedro,Galicia,Spain
codere,Amets,"LARRAMENDI, 1, Tolosa",43.14200779999999,-2.0713547,20400,Tolosa,Tolosa,Basque Country,Spain
codere,Amsterdam,"Calle ESTEBAN MANUEL VILLEGAS, 17, Logroño",42.4662853,-2.4364952,26004,Logroño,Logroño,La Rioja,Spain
codere,Anbore,"Praza Do Concello, 5 5 Esq. Calle Xuncal, 1, OROSO",42.9686221,-8.4421705,15888,Sigüeiro,Oroso,Galicia,Spain
codere,Areto,"Calle ISASI, 10, Eibar",43.1839139,-2.4743206,20600,Eibar,Eibar,Basque Country,Spain
codere,Ariño,"Tasaraño - Xaviña, 48 - TASARAÑO, Tasaraño",43.1395764,-9.147763399999999,15122,Tasaraño,Camariñas,Galicia,Spain
codere,As Baleas,"ANTONIO ANDRADE, 6, Cee",42.956112,-9.189259,15270,Cee,Cee,Galicia,Spain
codere,As De Copas,"Perez Galdos, 3, Logroño",42.4606804,-2.4464566,26002,Logroño,Logroño,La Rioja,Spain
codere,Atraskua,"Calle PINTOR IRIARTE, 3, Azkoitia",43.1783806,-2.3122519,20720,Azkoitia,Azkoitia,Basque Country,Spain
codere,Australian Cafe Pub Llano,"Calle ARRIAGA, 6, Barakaldo",-25.274398,133.775136,0872,Ghan,,Northern Territory,Australia
codere,Auzune,"Calle AITA LUIS VILLASANTE, 25 - Gernika-Lumo, Gernika-Lumo",43.3197586,-2.6701021,48300,,Ajangiz,Basque Country,Spain
codere,Avenida,"Guipuzkoa, 32, Irun",43.337697,-1.7955432,20302,Irun,Irun,Basque Country,Spain
codere,Azkarman,"Calle HERMINIO MADINABEITIA, 20 - Vitoria-Gasteiz, Vitoria",42.8371085,-2.6715857,01006,Vitoria-Gasteiz,Vitoria-Gasteiz,Basque Country,Spain
codere,Azteka,"Calle FICA, 50  Esc TRASERA, Bilbao",43.2528961,-2.9170189,48004,Bilbao,Bilbao,Basque Country,Spain
codere,BABEL,"RUA CABALLEROS, 49",43.3507132,-8.404719,15009,A Coruña,A Coruña,Galicia,Spain
codere,BAHAMAS,"SAN SEBASTIAN, 11, A Coruña",43.360516,-8.4157306,15007,A Coruña,A Coruña,Galicia,Spain
codere,BAHIA,"LONGARES, 2, Madrid",40.432796,-3.610022499999999,28022,Madrid,Madrid,Community of Madrid,Spain
codere,BAILARIN,"MANUEL QUIROGA, 21, O Barco",42.4141306,-6.976595499999999,32300,O Barco,O Barco de Valdeorras,Galicia,Spain
codere,BANDO S,"Calle RUA DO PETO, 4, Xinzo de Limia",42.0640738,-7.7268699,32630,Xinzo de Limia,Xinzo de Limia,Galicia,Spain
codere,BAR 2000,"LA CIGUEÑA, 46, Logroño",42.4643988,-2.4296351,26004,Logroño,Logroño,La Rioja,Spain
codere,BAR CAFETTO,"Ronda De Nelle, 107, A Coruña",43.3623112,-8.416710499999999,15010,A Coruña,A Coruña,Galicia,Spain
codere,BAR CERVECERIA CARIBBEAN,"Calle ROSA ESCRIG, 7, Beniarrés",38.8197142,-0.3791054,03850,Beniarrés,Beniarrés,Valencian Community,Spain
codere,BAR CHACON,"CAPITAN CLAUDIO VAZQUEZ, 8, C Claudio - Ceuta",35.88508789999999,-5.3395383,51002,Ceuta,Ceuta,Ceuta,Spain
codere,BAR GUO,"CALLE SERRERIA, 10, Valencia",39.4653627,-0.3358409,46022,Valencia,Valencia,Valencian Community,Spain
codere,BAR RESTAURANTE VALENCIA,"Calle SANTO DOMINGO SAVIO, 76, Valencia",39.4956016,-0.3761488,46019,Valencia,Valencia,Valencian Community,Spain
codere,BARCO,"Calle AZKUENE, 23, Donostia",43.3247367,-1.9381169,20016,Pasaia,Pasaia,Basque Country,Spain
codere,BARCODE,"Calle RÚA DAS FLORES, 6, Arteixo",,,,,,,
codere,BARDELAS,"Calle PRINCIPAL, 106, Maside",42.4126465,-8.0271747,32570,Maside,Maside,Galicia,Spain
codere,BARET DE ROUS,"LLOMBAI, 10, Alfarb",39.2775904,-0.5616207999999999,46197,Alfarb,Alfarb,Valencian Community,Spain
codere,BARRICAS,"OBISPO JAIME PEREZ 0009, Valencia",39.4594458,-0.3663133,46006,Valencia,Valencia,Valencian Community,Spain
codere,BARROCO,"ANTONIO MACHADO, 12, Vitoria",42.8591656,-2.681791800000001,01010,Vitoria-Gasteiz,Vitoria-Gasteiz,Basque Country,Spain
codere,BASERRI,"JUAN ANTONIO ZUNZUNEGUI, 13, Portugalete",43.31563939999999,-3.0209282,48920,Portugalete,Portugalete,Basque Country,Spain
codere,BASKONGADAS,"DE LAS VASCONGADAS, 1, Vitoria-Gasteiz",42.8508155,-2.661613500000001,01002,Vitoria-Gasteiz,Vitoria-Gasteiz,Basque Country,Spain
codere,BASOKO,"PIO XII (Pamplona), Pamplona",42.8092643,-1.6571331,31008,Pamplona,Pamplona,Navarre,Spain
codere,BATIFOULA,"CALLE CIRCUNVALACION DON AURELIO, 54, Cuntis",42.6340651,-8.5613992,36670,Cuntis,Cuntis,Galicia,Spain
codere,BEARIZ,"Calle MERELLES, 33, Beariz",42.4664272,-8.273637899999999,32520,Beariz,Beariz,Galicia,Spain
codere,BEAUTY AND FUL,"Calle RUA DA CAPELA, 2, Arteixo",43.3031012,-8.5095596,15142,Arteixo,Arteixo,Galicia,Spain
codere,BEER AND WIN,"Avenida SAN JUAN DE LA PEÑA, 184, Zaragoza",41.675837,-0.870898,50015,Zaragoza,Zaragoza,Aragon,Spain
